{
"type": "FeatureCollection",
"name": "seattle-traffic-counts-2020-2023",
"crs": { "type": "name", "properties": { "name": "urn:ogc:def:crs:OGC:1.3:CRS84" } },
"features": [
{ "type": "Feature", "properties": { "STUDY_DIRFLOW": "W", "STUDY_ADT": 6871, "STDY_TITLE_PART": "N 45TH ST, W/O EASTERN AVE N", "STDY_YEAR": 2020, "SE_ANNO_CAD_DATA": "" }, "geometry": { "type": "Point", "coordinates": [ -122.32957, 47.66137 ] } },
{ "type": "Feature", "properties": { "STUDY_DIRFLOW": "N", "STUDY_ADT": 12666, "STDY_TITLE_PART": "FREMONT BR, N/O POINT A", "STDY_YEAR": 2021, "SE_ANNO_CAD_DATA": "" }, "geometry": { "type": "Point", "coordinates": [ -122.34975, 47.64761 ] } },
{ "type": "Feature", "properties": { "STUDY_DIRFLOW": "W", "STUDY_ADT": 14442, "STDY_TITLE_PART": "N 85TH ST, W/O ASHWORTH AVE N", "STDY_YEAR": 2022, "SE_ANNO_CAD_DATA": "" }, "geometry": { "type": "Point", "coordinates": [ -122.33968, 47.69053 ] } },
{ "type": "Feature", "properties": { "STUDY_DIRFLOW": "E", "STUDY_ADT": 2297, "STDY_TITLE_PART": "S GENESEE ST, E/O 38TH AVE S", "STDY_YEAR": 2020, "SE_ANNO_CAD_DATA": "" }, "geometry": { "type": "Point", "coordinates": [ -122.28442, 47.56413 ] } },
{ "type": "Feature", "properties": { "STUDY_DIRFLOW": "N", "STUDY_ADT": 7144, "STDY_TITLE_PART": "FREMONT BR, N/O POINT A", "STDY_YEAR": 2020, "SE_ANNO_CAD_DATA": "" }, "geometry": { "type": "Point", "coordinates": [ -122.34975, 47.64761 ] } },
{ "type": "Feature", "properties": { "STUDY_DIRFLOW": "E", "STUDY_ADT": 4265, "STDY_TITLE_PART": "NE 65TH ST, E/O 25TH AVE NE", "STDY_YEAR": 2020, "SE_ANNO_CAD_DATA": "" }, "geometry": { "type": "Point", "coordinates": [ -122.30013, 47.67577 ] } },
{ "type": "Feature", "properties": { "STUDY_DIRFLOW": "TOTAL", "STUDY_ADT": 7802, "STDY_TITLE_PART": "ALKI AVE SW, W/O HARBOR AVE SW", "STDY_YEAR": 2020, "SE_ANNO_CAD_DATA": "" }, "geometry": { "type": "Point", "coordinates": [ -122.38679, 47.59515 ] } },
{ "type": "Feature", "properties": { "STUDY_DIRFLOW": "TOTAL", "STUDY_ADT": 26271, "STDY_TITLE_PART": "FREMONT BR, N/O POINT A", "STDY_YEAR": 2020, "SE_ANNO_CAD_DATA": "" }, "geometry": { "type": "Point", "coordinates": [ -122.34975, 47.64761 ] } },
{ "type": "Feature", "properties": { "STUDY_DIRFLOW": "W", "STUDY_ADT": 503, "STDY_TITLE_PART": "W ROY ST, W/O 3RD AVE W", "STDY_YEAR": 2021, "SE_ANNO_CAD_DATA": "" }, "geometry": { "type": "Point", "coordinates": [ -122.36127, 47.62585 ] } },
{ "type": "Feature", "properties": { "STUDY_DIRFLOW": "NE", "STUDY_ADT": 10788, "STDY_TITLE_PART": "HIGHLAND PARK WAY SW, E/O SW OTHELLO ST", "STDY_YEAR": 2020, "SE_ANNO_CAD_DATA": "" }, "geometry": { "type": "Point", "coordinates": [ -122.34609, 47.53925 ] } },
{ "type": "Feature", "properties": { "STUDY_DIRFLOW": "E", "STUDY_ADT": 10008, "STDY_TITLE_PART": "N 85TH ST, W/O ASHWORTH AVE N", "STDY_YEAR": 2020, "SE_ANNO_CAD_DATA": "" }, "geometry": { "type": "Point", "coordinates": [ -122.33968, 47.69053 ] } },
{ "type": "Feature", "properties": { "STUDY_DIRFLOW": "TOTAL", "STUDY_ADT": 7983, "STDY_TITLE_PART": "ALKI AVE SW, W/O HARBOR AVE SW", "STDY_YEAR": 2020, "SE_ANNO_CAD_DATA": "" }, "geometry": { "type": "Point", "coordinates": [ -122.38679, 47.59515 ] } },
{ "type": "Feature", "properties": { "STUDY_DIRFLOW": "TOTAL", "STUDY_ADT": 12536, "STDY_TITLE_PART": "E MADISON ST, SW/O 17TH AVE", "STDY_YEAR": 2021, "SE_ANNO_CAD_DATA": "" }, "geometry": { "type": "Point", "coordinates": [ -122.31066, 47.61538 ] } },
{ "type": "Feature", "properties": { "STUDY_DIRFLOW": "TOTAL", "STUDY_ADT": 6859, "STDY_TITLE_PART": "ALKI AVE SW, W/O HARBOR AVE SW", "STDY_YEAR": 2021, "SE_ANNO_CAD_DATA": "" }, "geometry": { "type": "Point", "coordinates": [ -122.38679, 47.59515 ] } },
{ "type": "Feature", "properties": { "STUDY_DIRFLOW": "TOTAL", "STUDY_ADT": 144, "STDY_TITLE_PART": "S ROSE ST, W/O 10TH AVE S", "STDY_YEAR": 2020, "SE_ANNO_CAD_DATA": "" }, "geometry": { "type": "Point", "coordinates": [ -122.32156, 47.52901 ] } },
{ "type": "Feature", "properties": { "STUDY_DIRFLOW": "TOTAL", "STUDY_ADT": 3091, "STDY_TITLE_PART": "LINDEN AVE N, N/O N 68TH ST", "STDY_YEAR": 2020, "SE_ANNO_CAD_DATA": "" }, "geometry": { "type": "Point", "coordinates": [ -122.34728, 47.67914 ] } },
{ "type": "Feature", "properties": { "STUDY_DIRFLOW": "W", "STUDY_ADT": 1977, "STDY_TITLE_PART": "SW EDMUNDS ST, W/O 40TH AVE SW", "STDY_YEAR": 2021, "SE_ANNO_CAD_DATA": "" }, "geometry": { "type": "Point", "coordinates": [ -122.38352, 47.55931 ] } },
{ "type": "Feature", "properties": { "STUDY_DIRFLOW": "TOTAL", "STUDY_ADT": 5758, "STDY_TITLE_PART": "SW ALASKA ST, E/O 42ND AVE SW", "STDY_YEAR": 2020, "SE_ANNO_CAD_DATA": "" }, "geometry": { "type": "Point", "coordinates": [ -122.3848, 47.56107 ] } },
{ "type": "Feature", "properties": { "STUDY_DIRFLOW": "E", "STUDY_ADT": 5006, "STDY_TITLE_PART": "NE CAMPUS EB PY, E/O 12TH AVE NE", "STDY_YEAR": 2021, "SE_ANNO_CAD_DATA": "" }, "geometry": { "type": "Point", "coordinates": [ -122.315, 47.65601 ] } },
{ "type": "Feature", "properties": { "STUDY_DIRFLOW": "N", "STUDY_ADT": 7584, "STDY_TITLE_PART": "RAINIER AVE S, S/O S OTHELLO ST", "STDY_YEAR": 2020, "SE_ANNO_CAD_DATA": "" }, "geometry": { "type": "Point", "coordinates": [ -122.27015, 47.53644 ] } },
{ "type": "Feature", "properties": { "STUDY_DIRFLOW": "S", "STUDY_ADT": 28, "STDY_TITLE_PART": "25TH AVE, N/O E YESLER WAY", "STDY_YEAR": 2020, "SE_ANNO_CAD_DATA": "" }, "geometry": { "type": "Point", "coordinates": [ -122.29997, 47.60216 ] } },
{ "type": "Feature", "properties": { "STUDY_DIRFLOW": "N", "STUDY_ADT": 4747, "STDY_TITLE_PART": "11TH AVE NE, S/O NE 50TH ST", "STDY_YEAR": 2023, "SE_ANNO_CAD_DATA": "" }, "geometry": { "type": "Point", "coordinates": [ -122.31635, 47.66402 ] } },
{ "type": "Feature", "properties": { "STUDY_DIRFLOW": "TOTAL", "STUDY_ADT": 1643, "STDY_TITLE_PART": "LATONA AVE NE, NE/O EAST GREEN LAKE DR N", "STDY_YEAR": 2021, "SE_ANNO_CAD_DATA": "" }, "geometry": { "type": "Point", "coordinates": [ -122.3271, 47.68194 ] } },
{ "type": "Feature", "properties": { "STUDY_DIRFLOW": "N", "STUDY_ADT": 423, "STDY_TITLE_PART": "15TH AVE SW, S/O SW CAMBRIDGE ST", "STDY_YEAR": 2021, "SE_ANNO_CAD_DATA": "" }, "geometry": { "type": "Point", "coordinates": [ -122.35402, 47.51827 ] } },
{ "type": "Feature", "properties": { "STUDY_DIRFLOW": "W", "STUDY_ADT": 95, "STDY_TITLE_PART": "SW KENYON ST, E/O 14TH AVE SW", "STDY_YEAR": 2020, "SE_ANNO_CAD_DATA": "" }, "geometry": { "type": "Point", "coordinates": [ -122.35223, 47.53189 ] } },
{ "type": "Feature", "properties": { "STUDY_DIRFLOW": "W", "STUDY_ADT": 3687, "STDY_TITLE_PART": "SW SPOKANE BR, W/O SW SPOKANE E ST", "STDY_YEAR": 2020, "SE_ANNO_CAD_DATA": "" }, "geometry": { "type": "Point", "coordinates": [ -122.35356, 47.57138 ] } },
{ "type": "Feature", "properties": { "STUDY_DIRFLOW": "S", "STUDY_ADT": 13291, "STDY_TITLE_PART": "M L KING JR WR WAY S, S/O S TRENTON ST", "STDY_YEAR": 2020, "SE_ANNO_CAD_DATA": "" }, "geometry": { "type": "Point", "coordinates": [ -122.27905, 47.52376 ] } },
{ "type": "Feature", "properties": { "STUDY_DIRFLOW": "TOTAL", "STUDY_ADT": 7788, "STDY_TITLE_PART": "DELRIDGE WAY SW, NE/O SW ANDOVER ST", "STDY_YEAR": 2020, "SE_ANNO_CAD_DATA": "" }, "geometry": { "type": "Point", "coordinates": [ -122.36279, 47.56914 ] } },
{ "type": "Feature", "properties": { "STUDY_DIRFLOW": "E", "STUDY_ADT": 1770, "STDY_TITLE_PART": "SW EDMUNDS ST, E/O 40TH AVE SW", "STDY_YEAR": 2021, "SE_ANNO_CAD_DATA": "" }, "geometry": { "type": "Point", "coordinates": [ -122.38216, 47.55925 ] } },
{ "type": "Feature", "properties": { "STUDY_DIRFLOW": "S", "STUDY_ADT": 9841, "STDY_TITLE_PART": "RAINIER AVE S, N/O S GENESEE N ST", "STDY_YEAR": 2022, "SE_ANNO_CAD_DATA": "" }, "geometry": { "type": "Point", "coordinates": [ -122.28842, 47.56496 ] } },
{ "type": "Feature", "properties": { "STUDY_DIRFLOW": "SE", "STUDY_ADT": 2190, "STDY_TITLE_PART": "NE RAVENNA EB BV, SE/O NE 63RD ST", "STDY_YEAR": 2020, "SE_ANNO_CAD_DATA": "" }, "geometry": { "type": "Point", "coordinates": [ -122.32035, 47.67368 ] } },
{ "type": "Feature", "properties": { "STUDY_DIRFLOW": "N", "STUDY_ADT": 9073, "STDY_TITLE_PART": "FREMONT BR, N/O POINT A", "STDY_YEAR": 2020, "SE_ANNO_CAD_DATA": "" }, "geometry": { "type": "Point", "coordinates": [ -122.34975, 47.64761 ] } },
{ "type": "Feature", "properties": { "STUDY_DIRFLOW": "TOTAL", "STUDY_ADT": 6410, "STDY_TITLE_PART": "26TH AVE SW, N/O SW CAMBRIDGE ST", "STDY_YEAR": 2023, "SE_ANNO_CAD_DATA": "" }, "geometry": { "type": "Point", "coordinates": [ -122.3659, 47.52011 ] } },
{ "type": "Feature", "properties": { "STUDY_DIRFLOW": "E", "STUDY_ADT": 10178, "STDY_TITLE_PART": "E ROANOKE ST, E/O HARVARD AVE E", "STDY_YEAR": 2023, "SE_ANNO_CAD_DATA": "" }, "geometry": { "type": "Point", "coordinates": [ -122.32147, 47.64319 ] } },
{ "type": "Feature", "properties": { "STUDY_DIRFLOW": "TOTAL", "STUDY_ADT": 479, "STDY_TITLE_PART": "SW MANNING ST, W/O ADMIRAL AVALON RP", "STDY_YEAR": 2021, "SE_ANNO_CAD_DATA": "" }, "geometry": { "type": "Point", "coordinates": [ -122.37218, 47.57125 ] } },
{ "type": "Feature", "properties": { "STUDY_DIRFLOW": "S", "STUDY_ADT": 86, "STDY_TITLE_PART": "25TH AVE S, S/O S JACKSON ST", "STDY_YEAR": 2020, "SE_ANNO_CAD_DATA": "" }, "geometry": { "type": "Point", "coordinates": [ -122.2999, 47.59868 ] } },
{ "type": "Feature", "properties": { "STUDY_DIRFLOW": "TOTAL", "STUDY_ADT": 225, "STDY_TITLE_PART": "S THISTLE ST, W/O 10TH AVE S", "STDY_YEAR": 2020, "SE_ANNO_CAD_DATA": "" }, "geometry": { "type": "Point", "coordinates": [ -122.32157, 47.52816 ] } },
{ "type": "Feature", "properties": { "STUDY_DIRFLOW": "TOTAL", "STUDY_ADT": 3612, "STDY_TITLE_PART": "NE 145TH ST, E/O LAKE CITY WAY NE", "STDY_YEAR": 2021, "SE_ANNO_CAD_DATA": "" }, "geometry": { "type": "Point", "coordinates": [ -122.29177, 47.73376 ] } },
{ "type": "Feature", "properties": { "STUDY_DIRFLOW": "W", "STUDY_ADT": 3120, "STDY_TITLE_PART": "SW 106TH ST, W/O 35TH AVE SW", "STDY_YEAR": 2021, "SE_ANNO_CAD_DATA": "" }, "geometry": { "type": "Point", "coordinates": [ -122.37871, 47.50821 ] } },
{ "type": "Feature", "properties": { "STUDY_DIRFLOW": "N", "STUDY_ADT": 13300, "STDY_TITLE_PART": "AURORA AVE N, N/O WINONA AVE N", "STDY_YEAR": 2023, "SE_ANNO_CAD_DATA": "" }, "geometry": { "type": "Point", "coordinates": [ -122.34448, 47.68304 ] } },
{ "type": "Feature", "properties": { "STUDY_DIRFLOW": "N", "STUDY_ADT": 48, "STDY_TITLE_PART": "6TH AVE NW, N/O NW 48TH ST", "STDY_YEAR": 2023, "SE_ANNO_CAD_DATA": "" }, "geometry": { "type": "Point", "coordinates": [ -122.364, 47.66402 ] } },
{ "type": "Feature", "properties": { "STUDY_DIRFLOW": "TOTAL", "STUDY_ADT": 17023, "STDY_TITLE_PART": "M L KING JR ER WAY S, N/O S ANDOVER ST", "STDY_YEAR": 2021, "SE_ANNO_CAD_DATA": "" }, "geometry": { "type": "Point", "coordinates": [ -122.29677, 47.56982 ] } },
{ "type": "Feature", "properties": { "STUDY_DIRFLOW": "S", "STUDY_ADT": 13464, "STDY_TITLE_PART": "GREENWOOD AVE N, S/O N 130TH ST", "STDY_YEAR": 2023, "SE_ANNO_CAD_DATA": "" }, "geometry": { "type": "Point", "coordinates": [ -122.35554, 47.72232 ] } },
{ "type": "Feature", "properties": { "STUDY_DIRFLOW": "TOTAL", "STUDY_ADT": 17664, "STDY_TITLE_PART": "N 85TH ST, W/O ASHWORTH AVE N", "STDY_YEAR": 2021, "SE_ANNO_CAD_DATA": "" }, "geometry": { "type": "Point", "coordinates": [ -122.33968, 47.69053 ] } },
{ "type": "Feature", "properties": { "STUDY_DIRFLOW": "E", "STUDY_ADT": 7373, "STDY_TITLE_PART": "NE 125TH ST, E/O 19TH AVE NE", "STDY_YEAR": 2023, "SE_ANNO_CAD_DATA": "" }, "geometry": { "type": "Point", "coordinates": [ -122.30819, 47.71937 ] } },
{ "type": "Feature", "properties": { "STUDY_DIRFLOW": "TOTAL", "STUDY_ADT": 20131, "STDY_TITLE_PART": "UNIVERSITY BR, SW/O POINT A", "STDY_YEAR": 2021, "SE_ANNO_CAD_DATA": "" }, "geometry": { "type": "Point", "coordinates": [ -122.32092, 47.65203 ] } },
{ "type": "Feature", "properties": { "STUDY_DIRFLOW": "NE", "STUDY_ADT": 3530, "STDY_TITLE_PART": "DELRIDGE WAY SW, NE/O SW ANDOVER ST", "STDY_YEAR": 2020, "SE_ANNO_CAD_DATA": "" }, "geometry": { "type": "Point", "coordinates": [ -122.36279, 47.56914 ] } },
{ "type": "Feature", "properties": { "STUDY_DIRFLOW": "S", "STUDY_ADT": 4254, "STDY_TITLE_PART": "8TH AVE NW, N/O NW 46TH ST", "STDY_YEAR": 2021, "SE_ANNO_CAD_DATA": "" }, "geometry": { "type": "Point", "coordinates": [ -122.36619, 47.66256 ] } },
{ "type": "Feature", "properties": { "STUDY_DIRFLOW": "N", "STUDY_ADT": 1148, "STDY_TITLE_PART": "DEXTER AVE, S/O DENNY WAY", "STDY_YEAR": 2020, "SE_ANNO_CAD_DATA": "" }, "geometry": { "type": "Point", "coordinates": [ -122.3424, 47.61822 ] } },
{ "type": "Feature", "properties": { "STUDY_DIRFLOW": "TOTAL", "STUDY_ADT": 2740, "STDY_TITLE_PART": "NE 70TH ST, E/O ROOSEVELT WAY NE", "STDY_YEAR": 2023, "SE_ANNO_CAD_DATA": "" }, "geometry": { "type": "Point", "coordinates": [ -122.31654, 47.67946 ] } },
{ "type": "Feature", "properties": { "STUDY_DIRFLOW": "N", "STUDY_ADT": 12371, "STDY_TITLE_PART": "UNIVERSITY BR, SW/O POINT A", "STDY_YEAR": 2021, "SE_ANNO_CAD_DATA": "" }, "geometry": { "type": "Point", "coordinates": [ -122.32092, 47.65203 ] } },
{ "type": "Feature", "properties": { "STUDY_DIRFLOW": "W", "STUDY_ADT": 2713, "STDY_TITLE_PART": "NE 54TH ST, E/O 21ST AVE NE", "STDY_YEAR": 2023, "SE_ANNO_CAD_DATA": "" }, "geometry": { "type": "Point", "coordinates": [ -122.30496, 47.66799 ] } },
{ "type": "Feature", "properties": { "STUDY_DIRFLOW": "TOTAL", "STUDY_ADT": 485, "STDY_TITLE_PART": "SW BARTON ST, E/O 15TH AVE SW", "STDY_YEAR": 2021, "SE_ANNO_CAD_DATA": "" }, "geometry": { "type": "Point", "coordinates": [ -122.35341, 47.52102 ] } },
{ "type": "Feature", "properties": { "STUDY_DIRFLOW": "TOTAL", "STUDY_ADT": 61287, "STDY_TITLE_PART": "AURORA AVE N, N/O WARD ST", "STDY_YEAR": 2023, "SE_ANNO_CAD_DATA": "" }, "geometry": { "type": "Point", "coordinates": [ -122.34354, 47.62846 ] } },
{ "type": "Feature", "properties": { "STUDY_DIRFLOW": "N", "STUDY_ADT": 4033, "STDY_TITLE_PART": "5TH AVE NE, N/O NE 85TH ST", "STDY_YEAR": 2020, "SE_ANNO_CAD_DATA": "" }, "geometry": { "type": "Point", "coordinates": [ -122.32301, 47.69085 ] } },
{ "type": "Feature", "properties": { "STUDY_DIRFLOW": "E", "STUDY_ADT": 12296, "STDY_TITLE_PART": "NW MARKET ST, W/O 8TH AVE NW", "STDY_YEAR": 2023, "SE_ANNO_CAD_DATA": "" }, "geometry": { "type": "Point", "coordinates": [ -122.36739, 47.66866 ] } },
{ "type": "Feature", "properties": { "STUDY_DIRFLOW": "N", "STUDY_ADT": 6272, "STDY_TITLE_PART": "M L KING JR ER WAY S, N/O S ALASKA ST", "STDY_YEAR": 2022, "SE_ANNO_CAD_DATA": "" }, "geometry": { "type": "Point", "coordinates": [ -122.2939, 47.56185 ] } },
{ "type": "Feature", "properties": { "STUDY_DIRFLOW": "N", "STUDY_ADT": 1236, "STDY_TITLE_PART": "20TH AVE NE, N/O NE 80TH ST", "STDY_YEAR": 2023, "SE_ANNO_CAD_DATA": "" }, "geometry": { "type": "Point", "coordinates": [ -122.30679, 47.68758 ] } },
{ "type": "Feature", "properties": { "STUDY_DIRFLOW": "TOTAL", "STUDY_ADT": 7483, "STDY_TITLE_PART": "LAKE WASHINGTON BLVD E, S/O E ROANOKE ST", "STDY_YEAR": 2023, "SE_ANNO_CAD_DATA": "" }, "geometry": { "type": "Point", "coordinates": [ -122.29859, 47.64242 ] } },
{ "type": "Feature", "properties": { "STUDY_DIRFLOW": "W", "STUDY_ADT": 5234, "STDY_TITLE_PART": "STEWART ST, NE/O 4TH AVE", "STDY_YEAR": 2020, "SE_ANNO_CAD_DATA": "" }, "geometry": { "type": "Point", "coordinates": [ -122.3383, 47.61263 ] } },
{ "type": "Feature", "properties": { "STUDY_DIRFLOW": "S", "STUDY_ADT": 4179, "STDY_TITLE_PART": "WEST MARGINAL WAY SW, S/O SW IDAHO ST", "STDY_YEAR": 2023, "SE_ANNO_CAD_DATA": "" }, "geometry": { "type": "Point", "coordinates": [ -122.35231, 47.56322 ] } },
{ "type": "Feature", "properties": { "STUDY_DIRFLOW": "W", "STUDY_ADT": 5572, "STDY_TITLE_PART": "S MCCLELLAN ST, E/O 30TH AVE S", "STDY_YEAR": 2023, "SE_ANNO_CAD_DATA": "" }, "geometry": { "type": "Point", "coordinates": [ -122.29358, 47.57835 ] } },
{ "type": "Feature", "properties": { "STUDY_DIRFLOW": "N", "STUDY_ADT": 8058, "STDY_TITLE_PART": "M L KING JR ER WAY S, N/O S ANDOVER ST", "STDY_YEAR": 2022, "SE_ANNO_CAD_DATA": "" }, "geometry": { "type": "Point", "coordinates": [ -122.29677, 47.56982 ] } },
{ "type": "Feature", "properties": { "STUDY_DIRFLOW": "TOTAL", "STUDY_ADT": 0, "STDY_TITLE_PART": "GLENN WAY SW, NW/O SW OREGON ST", "STDY_YEAR": 2020, "SE_ANNO_CAD_DATA": "" }, "geometry": { "type": "Point", "coordinates": [ -122.39016, 47.56385 ] } },
{ "type": "Feature", "properties": { "STUDY_DIRFLOW": "S", "STUDY_ADT": 5452, "STDY_TITLE_PART": "8TH AVE NW, S/O NW 80TH ST", "STDY_YEAR": 2022, "SE_ANNO_CAD_DATA": "" }, "geometry": { "type": "Point", "coordinates": [ -122.366, 47.68657 ] } },
{ "type": "Feature", "properties": { "STUDY_DIRFLOW": "TOTAL", "STUDY_ADT": 18665, "STDY_TITLE_PART": "W NICKERSON ST, W/O W BERTONA ST", "STDY_YEAR": 2023, "SE_ANNO_CAD_DATA": "" }, "geometry": { "type": "Point", "coordinates": [ -122.35998, 47.65063 ] } },
{ "type": "Feature", "properties": { "STUDY_DIRFLOW": "S", "STUDY_ADT": 1428, "STDY_TITLE_PART": "59TH AVE SW, N/O SW SPOKANE ST", "STDY_YEAR": 2023, "SE_ANNO_CAD_DATA": "" }, "geometry": { "type": "Point", "coordinates": [ -122.40816, 47.57305 ] } },
{ "type": "Feature", "properties": { "STUDY_DIRFLOW": "S", "STUDY_ADT": 5784, "STDY_TITLE_PART": "SAND POINT WAY NE, S/O NE 70TH ST", "STDY_YEAR": 2023, "SE_ANNO_CAD_DATA": "" }, "geometry": { "type": "Point", "coordinates": [ -122.26358, 47.67754 ] } },
{ "type": "Feature", "properties": { "STUDY_DIRFLOW": "W", "STUDY_ADT": 4125, "STDY_TITLE_PART": "ALKI AVE SW, W/O HARBOR AVE SW", "STDY_YEAR": 2023, "SE_ANNO_CAD_DATA": "" }, "geometry": { "type": "Point", "coordinates": [ -122.38679, 47.59515 ] } },
{ "type": "Feature", "properties": { "STUDY_DIRFLOW": "S", "STUDY_ADT": 2903, "STDY_TITLE_PART": "MAYNARD AVE S, S/O S CHARLES ST", "STDY_YEAR": 2020, "SE_ANNO_CAD_DATA": "" }, "geometry": { "type": "Point", "coordinates": [ -122.32507, 47.59458 ] } },
{ "type": "Feature", "properties": { "STUDY_DIRFLOW": "W", "STUDY_ADT": 2885, "STDY_TITLE_PART": "S LANDER ST, W/O 6TH AVE S", "STDY_YEAR": 2020, "SE_ANNO_CAD_DATA": "" }, "geometry": { "type": "Point", "coordinates": [ -122.32636, 47.57981 ] } },
{ "type": "Feature", "properties": { "STUDY_DIRFLOW": "S", "STUDY_ADT": 54, "STDY_TITLE_PART": "14TH AVE SW, S/O SW HENDERSON ST", "STDY_YEAR": 2020, "SE_ANNO_CAD_DATA": "" }, "geometry": { "type": "Point", "coordinates": [ -122.35284, 47.52193 ] } },
{ "type": "Feature", "properties": { "STUDY_DIRFLOW": "TOTAL", "STUDY_ADT": 8565, "STDY_TITLE_PART": "ALKI AVE SW, W/O HARBOR AVE SW", "STDY_YEAR": 2023, "SE_ANNO_CAD_DATA": "" }, "geometry": { "type": "Point", "coordinates": [ -122.38679, 47.59515 ] } },
{ "type": "Feature", "properties": { "STUDY_DIRFLOW": "NW", "STUDY_ADT": 1157, "STDY_TITLE_PART": "GLENN WAY SW, SE/O SW OREGON ST", "STDY_YEAR": 2020, "SE_ANNO_CAD_DATA": "" }, "geometry": { "type": "Point", "coordinates": [ -122.38881, 47.56204 ] } },
{ "type": "Feature", "properties": { "STUDY_DIRFLOW": "TOTAL", "STUDY_ADT": 6470, "STDY_TITLE_PART": "S LANDER ST, W/O 6TH AVE S", "STDY_YEAR": 2020, "SE_ANNO_CAD_DATA": "" }, "geometry": { "type": "Point", "coordinates": [ -122.32636, 47.57981 ] } },
{ "type": "Feature", "properties": { "STUDY_DIRFLOW": "S", "STUDY_ADT": 10724, "STDY_TITLE_PART": "FREMONT BR, N/O POINT A", "STDY_YEAR": 2022, "SE_ANNO_CAD_DATA": "" }, "geometry": { "type": "Point", "coordinates": [ -122.34975, 47.64761 ] } },
{ "type": "Feature", "properties": { "STUDY_DIRFLOW": "N", "STUDY_ADT": 4760, "STDY_TITLE_PART": "15TH AVE S, N/O S BAYVIEW ST", "STDY_YEAR": 2020, "SE_ANNO_CAD_DATA": "" }, "geometry": { "type": "Point", "coordinates": [ -122.3134, 47.582 ] } },
{ "type": "Feature", "properties": { "STUDY_DIRFLOW": "TOTAL", "STUDY_ADT": 6178, "STDY_TITLE_PART": "LAKE WASHINGTON BLVD S, S/O S HORTON ST", "STDY_YEAR": 2022, "SE_ANNO_CAD_DATA": "" }, "geometry": { "type": "Point", "coordinates": [ -122.28042, 47.57135 ] } },
{ "type": "Feature", "properties": { "STUDY_DIRFLOW": "TOTAL", "STUDY_ADT": 12289, "STDY_TITLE_PART": "AIRPORT WAY S, N/O S ANDOVER ST", "STDY_YEAR": 2023, "SE_ANNO_CAD_DATA": "" }, "geometry": { "type": "Point", "coordinates": [ -122.32268, 47.56851 ] } },
{ "type": "Feature", "properties": { "STUDY_DIRFLOW": "S", "STUDY_ADT": 146, "STDY_TITLE_PART": "12TH AVE S, N/O S CLOVERDALE ST", "STDY_YEAR": 2020, "SE_ANNO_CAD_DATA": "" }, "geometry": { "type": "Point", "coordinates": [ -122.31757, 47.52688 ] } },
{ "type": "Feature", "properties": { "STUDY_DIRFLOW": "TOTAL", "STUDY_ADT": 7822, "STDY_TITLE_PART": "S GENESEE ST, E/O 38TH AVE S", "STDY_YEAR": 2020, "SE_ANNO_CAD_DATA": "" }, "geometry": { "type": "Point", "coordinates": [ -122.28442, 47.56413 ] } },
{ "type": "Feature", "properties": { "STUDY_DIRFLOW": "S", "STUDY_ADT": 5304, "STDY_TITLE_PART": "UNIVERSITY BR, SW/O POINT A", "STDY_YEAR": 2020, "SE_ANNO_CAD_DATA": "" }, "geometry": { "type": "Point", "coordinates": [ -122.32092, 47.65203 ] } },
{ "type": "Feature", "properties": { "STUDY_DIRFLOW": "W", "STUDY_ADT": 3408, "STDY_TITLE_PART": "S LUCILE ST, W/O 12TH AVE S", "STDY_YEAR": 2020, "SE_ANNO_CAD_DATA": "" }, "geometry": { "type": "Point", "coordinates": [ -122.31829, 47.55346 ] } },
{ "type": "Feature", "properties": { "STUDY_DIRFLOW": "TOTAL", "STUDY_ADT": 15332, "STDY_TITLE_PART": "UNIVERSITY BR, SW/O POINT A", "STDY_YEAR": 2020, "SE_ANNO_CAD_DATA": "" }, "geometry": { "type": "Point", "coordinates": [ -122.32092, 47.65203 ] } },
{ "type": "Feature", "properties": { "STUDY_DIRFLOW": "W", "STUDY_ADT": 2935, "STDY_TITLE_PART": "NE 95TH ST, E/O 40TH AVE NE", "STDY_YEAR": 2021, "SE_ANNO_CAD_DATA": "" }, "geometry": { "type": "Point", "coordinates": [ -122.28399, 47.69741 ] } },
{ "type": "Feature", "properties": { "STUDY_DIRFLOW": "SW", "STUDY_ADT": 16959, "STDY_TITLE_PART": "LAKE CITY WAY NE, NE/O NE 95TH ST", "STDY_YEAR": 2020, "SE_ANNO_CAD_DATA": "" }, "geometry": { "type": "Point", "coordinates": [ -122.30445, 47.69894 ] } },
{ "type": "Feature", "properties": { "STUDY_DIRFLOW": "S", "STUDY_ADT": 836, "STDY_TITLE_PART": "39TH AVE S, S/O S CAMBRIDGE ST", "STDY_YEAR": 2020, "SE_ANNO_CAD_DATA": "" }, "geometry": { "type": "Point", "coordinates": [ -122.28367, 47.51779 ] } },
{ "type": "Feature", "properties": { "STUDY_DIRFLOW": "NW", "STUDY_ADT": 5057, "STDY_TITLE_PART": "1ST AVE, NW/O EAGLE ST", "STDY_YEAR": 2020, "SE_ANNO_CAD_DATA": "" }, "geometry": { "type": "Point", "coordinates": [ -122.35399, 47.61779 ] } },
{ "type": "Feature", "properties": { "STUDY_DIRFLOW": "TOTAL", "STUDY_ADT": 5816, "STDY_TITLE_PART": "RENTON AVE S, SE/O 62ND AVE S", "STDY_YEAR": 2020, "SE_ANNO_CAD_DATA": "" }, "geometry": { "type": "Point", "coordinates": [ -122.25534, 47.5071 ] } },
{ "type": "Feature", "properties": { "STUDY_DIRFLOW": "TOTAL", "STUDY_ADT": 34478, "STDY_TITLE_PART": "NE 45TH ST, W/O NE 45TH PL", "STDY_YEAR": 2020, "SE_ANNO_CAD_DATA": "" }, "geometry": { "type": "Point", "coordinates": [ -122.29476, 47.66125 ] } },
{ "type": "Feature", "properties": { "STUDY_DIRFLOW": "TOTAL", "STUDY_ADT": 28317, "STDY_TITLE_PART": "LAKE CITY WAY NE, NE/O NE 95TH ST", "STDY_YEAR": 2021, "SE_ANNO_CAD_DATA": "" }, "geometry": { "type": "Point", "coordinates": [ -122.30445, 47.69894 ] } },
{ "type": "Feature", "properties": { "STUDY_DIRFLOW": "W", "STUDY_ADT": 7478, "STDY_TITLE_PART": "SW ROXBURY ST, E/O 15TH AVE SW", "STDY_YEAR": 2020, "SE_ANNO_CAD_DATA": "" }, "geometry": { "type": "Point", "coordinates": [ -122.35347, 47.51735 ] } },
{ "type": "Feature", "properties": { "STUDY_DIRFLOW": "E", "STUDY_ADT": 2500, "STDY_TITLE_PART": "N 128TH ST, E/O DENSMORE AVE N", "STDY_YEAR": 2021, "SE_ANNO_CAD_DATA": "" }, "geometry": { "type": "Point", "coordinates": [ -122.33576, 47.72201 ] } },
{ "type": "Feature", "properties": { "STUDY_DIRFLOW": "W", "STUDY_ADT": 2197, "STDY_TITLE_PART": "W EMERSON ST, W/O 36TH AVE W", "STDY_YEAR": 2021, "SE_ANNO_CAD_DATA": "" }, "geometry": { "type": "Point", "coordinates": [ -122.4052, 47.65408 ] } },
{ "type": "Feature", "properties": { "STUDY_DIRFLOW": "W", "STUDY_ADT": 3820, "STDY_TITLE_PART": "S GENESEE ST, E/O 38TH AVE S", "STDY_YEAR": 2022, "SE_ANNO_CAD_DATA": "" }, "geometry": { "type": "Point", "coordinates": [ -122.28442, 47.56413 ] } },
{ "type": "Feature", "properties": { "STUDY_DIRFLOW": "TOTAL", "STUDY_ADT": 14621, "STDY_TITLE_PART": "M L KING JR ER WAY S, N/O S ANDOVER ST", "STDY_YEAR": 2021, "SE_ANNO_CAD_DATA": "" }, "geometry": { "type": "Point", "coordinates": [ -122.29677, 47.56982 ] } },
{ "type": "Feature", "properties": { "STUDY_DIRFLOW": "TOTAL", "STUDY_ADT": 6901, "STDY_TITLE_PART": "W HOWE ST, W/O 10TH AVE W", "STDY_YEAR": 2023, "SE_ANNO_CAD_DATA": "" }, "geometry": { "type": "Point", "coordinates": [ -122.37101, 47.63595 ] } },
{ "type": "Feature", "properties": { "STUDY_DIRFLOW": "S", "STUDY_ADT": 8235, "STDY_TITLE_PART": "M L KING JR WR WAY S, N/O S ANDOVER ST", "STDY_YEAR": 2023, "SE_ANNO_CAD_DATA": "" }, "geometry": { "type": "Point", "coordinates": [ -122.29699, 47.56861 ] } },
{ "type": "Feature", "properties": { "STUDY_DIRFLOW": "TOTAL", "STUDY_ADT": 27, "STDY_TITLE_PART": "1ST AVE NW, N/O NW 78TH ST", "STDY_YEAR": 2020, "SE_ANNO_CAD_DATA": "" }, "geometry": { "type": "Point", "coordinates": [ -122.35798, 47.68584 ] } },
{ "type": "Feature", "properties": { "STUDY_DIRFLOW": "E", "STUDY_ADT": 3174, "STDY_TITLE_PART": "E YESLER WAY, E/O 18TH AVE", "STDY_YEAR": 2022, "SE_ANNO_CAD_DATA": "" }, "geometry": { "type": "Point", "coordinates": [ -122.30831, 47.60168 ] } },
{ "type": "Feature", "properties": { "STUDY_DIRFLOW": "TOTAL", "STUDY_ADT": 188, "STDY_TITLE_PART": "N 43RD ST, W/O WALLINGFORD AVE N", "STDY_YEAR": 2020, "SE_ANNO_CAD_DATA": "" }, "geometry": { "type": "Point", "coordinates": [ -122.33681, 47.65916 ] } },
{ "type": "Feature", "properties": { "STUDY_DIRFLOW": "W", "STUDY_ADT": 3845, "STDY_TITLE_PART": "S GENESEE ST, E/O 38TH AVE S", "STDY_YEAR": 2022, "SE_ANNO_CAD_DATA": "" }, "geometry": { "type": "Point", "coordinates": [ -122.28442, 47.56413 ] } },
{ "type": "Feature", "properties": { "STUDY_DIRFLOW": "N", "STUDY_ADT": 1602, "STDY_TITLE_PART": "15TH AVE E, N/O E HARRISON N ST", "STDY_YEAR": 2022, "SE_ANNO_CAD_DATA": "" }, "geometry": { "type": "Point", "coordinates": [ -122.31264, 47.6226 ] } },
{ "type": "Feature", "properties": { "STUDY_DIRFLOW": "TOTAL", "STUDY_ADT": 20860, "STDY_TITLE_PART": "M L KING JR WR WAY S, S/O S ORCAS ST", "STDY_YEAR": 2020, "SE_ANNO_CAD_DATA": "" }, "geometry": { "type": "Point", "coordinates": [ -122.28734, 47.5496 ] } },
{ "type": "Feature", "properties": { "STUDY_DIRFLOW": "S", "STUDY_ADT": 3665, "STDY_TITLE_PART": "26TH AVE SW, N/O SW CAMBRIDGE ST", "STDY_YEAR": 2022, "SE_ANNO_CAD_DATA": "" }, "geometry": { "type": "Point", "coordinates": [ -122.3659, 47.52011 ] } },
{ "type": "Feature", "properties": { "STUDY_DIRFLOW": "TOTAL", "STUDY_ADT": 804, "STDY_TITLE_PART": "NW 50TH ST, W/O 6TH E AVE NW", "STDY_YEAR": 2023, "SE_ANNO_CAD_DATA": "" }, "geometry": { "type": "Point", "coordinates": [ -122.36365, 47.66502 ] } },
{ "type": "Feature", "properties": { "STUDY_DIRFLOW": "E", "STUDY_ADT": 6594, "STDY_TITLE_PART": "N 80TH ST, W/O ASHWORTH AVE N", "STDY_YEAR": 2023, "SE_ANNO_CAD_DATA": "" }, "geometry": { "type": "Point", "coordinates": [ -122.33978, 47.68693 ] } },
{ "type": "Feature", "properties": { "STUDY_DIRFLOW": "W", "STUDY_ADT": 1136, "STDY_TITLE_PART": "S HUDSON ST, E/O COLORADO AVE S", "STDY_YEAR": 2023, "SE_ANNO_CAD_DATA": "" }, "geometry": { "type": "Point", "coordinates": [ -122.33615, 47.55741 ] } },
{ "type": "Feature", "properties": { "STUDY_DIRFLOW": "S", "STUDY_ADT": 7835, "STDY_TITLE_PART": "RAINIER AVE S, S/O S OTHELLO ST", "STDY_YEAR": 2021, "SE_ANNO_CAD_DATA": "" }, "geometry": { "type": "Point", "coordinates": [ -122.27015, 47.53644 ] } },
{ "type": "Feature", "properties": { "STUDY_DIRFLOW": "NW", "STUDY_ADT": 2604, "STDY_TITLE_PART": "WILSON AVE S, NW/O S LUCILE ST", "STDY_YEAR": 2020, "SE_ANNO_CAD_DATA": "" }, "geometry": { "type": "Point", "coordinates": [ -122.26775, 47.55283 ] } },
{ "type": "Feature", "properties": { "STUDY_DIRFLOW": "W", "STUDY_ADT": 4013, "STDY_TITLE_PART": "ALKI AVE SW, W/O HARBOR AVE SW", "STDY_YEAR": 2020, "SE_ANNO_CAD_DATA": "" }, "geometry": { "type": "Point", "coordinates": [ -122.38679, 47.59515 ] } },
{ "type": "Feature", "properties": { "STUDY_DIRFLOW": "TOTAL", "STUDY_ADT": 3715, "STDY_TITLE_PART": "SW TRENTON ST, E/O 26TH AVE SW", "STDY_YEAR": 2020, "SE_ANNO_CAD_DATA": "" }, "geometry": { "type": "Point", "coordinates": [ -122.3652, 47.52468 ] } },
{ "type": "Feature", "properties": { "STUDY_DIRFLOW": "N", "STUDY_ADT": 303, "STDY_TITLE_PART": "18TH AVE, S/O E HOWELL ST", "STDY_YEAR": 2022, "SE_ANNO_CAD_DATA": "" }, "geometry": { "type": "Point", "coordinates": [ -122.30884, 47.61702 ] } },
{ "type": "Feature", "properties": { "STUDY_DIRFLOW": "N", "STUDY_ADT": 29, "STDY_TITLE_PART": "17TH AVE SW, S/O SW THISTLE ST", "STDY_YEAR": 2020, "SE_ANNO_CAD_DATA": "" }, "geometry": { "type": "Point", "coordinates": [ -122.35642, 47.52739 ] } },
{ "type": "Feature", "properties": { "STUDY_DIRFLOW": "SE", "STUDY_ADT": 1496, "STDY_TITLE_PART": "ALASKAN WAY, SE/O BLANCHARD ST", "STDY_YEAR": 2023, "SE_ANNO_CAD_DATA": "" }, "geometry": { "type": "Point", "coordinates": [ -122.34695, 47.61038 ] } },
{ "type": "Feature", "properties": { "STUDY_DIRFLOW": "TOTAL", "STUDY_ADT": 6851, "STDY_TITLE_PART": "BEACON ER AVE S, N/O S WARSAW ST", "STDY_YEAR": 2020, "SE_ANNO_CAD_DATA": "" }, "geometry": { "type": "Point", "coordinates": [ -122.29957, 47.54392 ] } },
{ "type": "Feature", "properties": { "STUDY_DIRFLOW": "TOTAL", "STUDY_ADT": 116, "STDY_TITLE_PART": "12TH AVE SW, N/O SW MYRTLE ST", "STDY_YEAR": 2021, "SE_ANNO_CAD_DATA": "" }, "geometry": { "type": "Point", "coordinates": [ -122.35035, 47.54096 ] } },
{ "type": "Feature", "properties": { "STUDY_DIRFLOW": "TOTAL", "STUDY_ADT": 5198, "STDY_TITLE_PART": "3RD AVE, SE/O UNION ST", "STDY_YEAR": 2023, "SE_ANNO_CAD_DATA": "" }, "geometry": { "type": "Point", "coordinates": [ -122.33643, 47.60826 ] } },
{ "type": "Feature", "properties": { "STUDY_DIRFLOW": "N", "STUDY_ADT": 2069, "STDY_TITLE_PART": "1ST AVE N, S/O ROY ST", "STDY_YEAR": 2020, "SE_ANNO_CAD_DATA": "" }, "geometry": { "type": "Point", "coordinates": [ -122.3554, 47.62502 ] } },
{ "type": "Feature", "properties": { "STUDY_DIRFLOW": "TOTAL", "STUDY_ADT": 28263, "STDY_TITLE_PART": "LAKE CITY WAY NE, NE/O NE 95TH ST", "STDY_YEAR": 2022, "SE_ANNO_CAD_DATA": "" }, "geometry": { "type": "Point", "coordinates": [ -122.30445, 47.69894 ] } },
{ "type": "Feature", "properties": { "STUDY_DIRFLOW": "N", "STUDY_ADT": 1661, "STDY_TITLE_PART": "BROOKLYN AVE NE, N/O NE 47TH ST", "STDY_YEAR": 2023, "SE_ANNO_CAD_DATA": "" }, "geometry": { "type": "Point", "coordinates": [ -122.31422, 47.664 ] } },
{ "type": "Feature", "properties": { "STUDY_DIRFLOW": "NE", "STUDY_ADT": 6472, "STDY_TITLE_PART": "UNIVERSITY ST, SW/O 4TH AVE", "STDY_YEAR": 2022, "SE_ANNO_CAD_DATA": "" }, "geometry": { "type": "Point", "coordinates": [ -122.33542, 47.608 ] } },
{ "type": "Feature", "properties": { "STUDY_DIRFLOW": "W", "STUDY_ADT": 3133, "STDY_TITLE_PART": "S GENESEE ST, E/O 38TH AVE S", "STDY_YEAR": 2020, "SE_ANNO_CAD_DATA": "" }, "geometry": { "type": "Point", "coordinates": [ -122.28442, 47.56413 ] } },
{ "type": "Feature", "properties": { "STUDY_DIRFLOW": "S", "STUDY_ADT": 6189, "STDY_TITLE_PART": "EASTLAKE AVE E, N/O REPUBLICAN ST", "STDY_YEAR": 2020, "SE_ANNO_CAD_DATA": "" }, "geometry": { "type": "Point", "coordinates": [ -122.32916, 47.6237 ] } },
{ "type": "Feature", "properties": { "STUDY_DIRFLOW": "N", "STUDY_ADT": 16518, "STDY_TITLE_PART": "2ND AVE SW, S/O WEST MARGINAL WAY SW", "STDY_YEAR": 2020, "SE_ANNO_CAD_DATA": "" }, "geometry": { "type": "Point", "coordinates": [ -122.33707, 47.53607 ] } },
{ "type": "Feature", "properties": { "STUDY_DIRFLOW": "N", "STUDY_ADT": 773, "STDY_TITLE_PART": "20TH AVE NE, S/O NE 50TH ST", "STDY_YEAR": 2020, "SE_ANNO_CAD_DATA": "" }, "geometry": { "type": "Point", "coordinates": [ -122.30651, 47.66397 ] } },
{ "type": "Feature", "properties": { "STUDY_DIRFLOW": "TOTAL", "STUDY_ADT": 20210, "STDY_TITLE_PART": "N 85TH ST, W/O LINDEN AVE N", "STDY_YEAR": 2020, "SE_ANNO_CAD_DATA": "" }, "geometry": { "type": "Point", "coordinates": [ -122.34856, 47.69057 ] } },
{ "type": "Feature", "properties": { "STUDY_DIRFLOW": "NE", "STUDY_ADT": 11459, "STDY_TITLE_PART": "LAKE CITY WAY NE, NE/O NE 95TH ST", "STDY_YEAR": 2020, "SE_ANNO_CAD_DATA": "" }, "geometry": { "type": "Point", "coordinates": [ -122.30445, 47.69894 ] } },
{ "type": "Feature", "properties": { "STUDY_DIRFLOW": "TOTAL", "STUDY_ADT": 11294, "STDY_TITLE_PART": "BOREN AVE, NW/O COLUMBIA ST", "STDY_YEAR": 2022, "SE_ANNO_CAD_DATA": "" }, "geometry": { "type": "Point", "coordinates": [ -122.32416, 47.60827 ] } },
{ "type": "Feature", "properties": { "STUDY_DIRFLOW": "TOTAL", "STUDY_ADT": 26868, "STDY_TITLE_PART": "N 85TH ST, W/O ASHWORTH AVE N", "STDY_YEAR": 2022, "SE_ANNO_CAD_DATA": "" }, "geometry": { "type": "Point", "coordinates": [ -122.33968, 47.69053 ] } },
{ "type": "Feature", "properties": { "STUDY_DIRFLOW": "TOTAL", "STUDY_ADT": 4724, "STDY_TITLE_PART": "15TH AVE NE, S/O NE NORTHGATE WAY", "STDY_YEAR": 2020, "SE_ANNO_CAD_DATA": "" }, "geometry": { "type": "Point", "coordinates": [ -122.31243, 47.70761 ] } },
{ "type": "Feature", "properties": { "STUDY_DIRFLOW": "TOTAL", "STUDY_ADT": 12751, "STDY_TITLE_PART": "ALASKAN WAY, SE/O BLANCHARD ST", "STDY_YEAR": 2020, "SE_ANNO_CAD_DATA": "" }, "geometry": { "type": "Point", "coordinates": [ -122.34695, 47.61038 ] } },
{ "type": "Feature", "properties": { "STUDY_DIRFLOW": "S", "STUDY_ADT": 7960, "STDY_TITLE_PART": "M L KING JR WR WAY S, N/O S ANDOVER ST", "STDY_YEAR": 2023, "SE_ANNO_CAD_DATA": "" }, "geometry": { "type": "Point", "coordinates": [ -122.29699, 47.56861 ] } },
{ "type": "Feature", "properties": { "STUDY_DIRFLOW": "S", "STUDY_ADT": 6923, "STDY_TITLE_PART": "M L KING JR WAY S, N/O S HILL ST", "STDY_YEAR": 2020, "SE_ANNO_CAD_DATA": "" }, "geometry": { "type": "Point", "coordinates": [ -122.29813, 47.58499 ] } },
{ "type": "Feature", "properties": { "STUDY_DIRFLOW": "N", "STUDY_ADT": 4918, "STDY_TITLE_PART": "BEACON AVE S, N/O S SPOKANE ST", "STDY_YEAR": 2020, "SE_ANNO_CAD_DATA": "" }, "geometry": { "type": "Point", "coordinates": [ -122.30843, 47.57251 ] } },
{ "type": "Feature", "properties": { "STUDY_DIRFLOW": "N", "STUDY_ADT": 9358, "STDY_TITLE_PART": "M L KING JR ER WAY S, N/O S ANDOVER ST", "STDY_YEAR": 2021, "SE_ANNO_CAD_DATA": "" }, "geometry": { "type": "Point", "coordinates": [ -122.29677, 47.56982 ] } },
{ "type": "Feature", "properties": { "STUDY_DIRFLOW": "W", "STUDY_ADT": 14279, "STDY_TITLE_PART": "N 85TH ST, W/O ASHWORTH AVE N", "STDY_YEAR": 2023, "SE_ANNO_CAD_DATA": "" }, "geometry": { "type": "Point", "coordinates": [ -122.33968, 47.69053 ] } },
{ "type": "Feature", "properties": { "STUDY_DIRFLOW": "SW", "STUDY_ADT": 7853, "STDY_TITLE_PART": "EAST GREEN LAKE WAY N, NE/O 2ND AVE NE", "STDY_YEAR": 2021, "SE_ANNO_CAD_DATA": "" }, "geometry": { "type": "Point", "coordinates": [ -122.32716, 47.67844 ] } },
{ "type": "Feature", "properties": { "STUDY_DIRFLOW": "TOTAL", "STUDY_ADT": 8607, "STDY_TITLE_PART": "DELRIDGE WAY SW, NE/O SW ANDOVER ST", "STDY_YEAR": 2020, "SE_ANNO_CAD_DATA": "" }, "geometry": { "type": "Point", "coordinates": [ -122.36279, 47.56914 ] } },
{ "type": "Feature", "properties": { "STUDY_DIRFLOW": "TOTAL", "STUDY_ADT": 3341, "STDY_TITLE_PART": "16TH AVE SW, S/O SW FINDLAY ST", "STDY_YEAR": 2021, "SE_ANNO_CAD_DATA": "" }, "geometry": { "type": "Point", "coordinates": [ -122.35484, 47.54832 ] } },
{ "type": "Feature", "properties": { "STUDY_DIRFLOW": "TOTAL", "STUDY_ADT": 18496, "STDY_TITLE_PART": "E MADISON ST, SW/O 17TH AVE", "STDY_YEAR": 2020, "SE_ANNO_CAD_DATA": "" }, "geometry": { "type": "Point", "coordinates": [ -122.31066, 47.61538 ] } },
{ "type": "Feature", "properties": { "STUDY_DIRFLOW": "W", "STUDY_ADT": 3207, "STDY_TITLE_PART": "SW BARTON ST, E/O 39TH AVE SW", "STDY_YEAR": 2020, "SE_ANNO_CAD_DATA": "" }, "geometry": { "type": "Point", "coordinates": [ -122.38145, 47.5211 ] } },
{ "type": "Feature", "properties": { "STUDY_DIRFLOW": "TOTAL", "STUDY_ADT": 3484, "STDY_TITLE_PART": "DELMAR DR E, NW/O 11TH AVE E", "STDY_YEAR": 2020, "SE_ANNO_CAD_DATA": "" }, "geometry": { "type": "Point", "coordinates": [ -122.31848, 47.64288 ] } },
{ "type": "Feature", "properties": { "STUDY_DIRFLOW": "E", "STUDY_ADT": 3379, "STDY_TITLE_PART": "SW ALASKA ST, E/O 37TH AVE SW", "STDY_YEAR": 2023, "SE_ANNO_CAD_DATA": "" }, "geometry": { "type": "Point", "coordinates": [ -122.37811, 47.56108 ] } },
{ "type": "Feature", "properties": { "STUDY_DIRFLOW": "N", "STUDY_ADT": 5534, "STDY_TITLE_PART": "WEST MARGINAL WAY SW, S/O SW IDAHO ST", "STDY_YEAR": 2023, "SE_ANNO_CAD_DATA": "" }, "geometry": { "type": "Point", "coordinates": [ -122.35231, 47.56322 ] } },
{ "type": "Feature", "properties": { "STUDY_DIRFLOW": "S", "STUDY_ADT": 7426, "STDY_TITLE_PART": "M L KING JR WR WAY S, N/O S ANDOVER ST", "STDY_YEAR": 2020, "SE_ANNO_CAD_DATA": "" }, "geometry": { "type": "Point", "coordinates": [ -122.29699, 47.56861 ] } },
{ "type": "Feature", "properties": { "STUDY_DIRFLOW": "E", "STUDY_ADT": 13037, "STDY_TITLE_PART": "DENNY WAY, W/O 2ND AVE", "STDY_YEAR": 2021, "SE_ANNO_CAD_DATA": "" }, "geometry": { "type": "Point", "coordinates": [ -122.3531, 47.61859 ] } },
{ "type": "Feature", "properties": { "STUDY_DIRFLOW": "TOTAL", "STUDY_ADT": 7871, "STDY_TITLE_PART": "QUEEN ANNE AVE N, S/O CROCKETT ST", "STDY_YEAR": 2021, "SE_ANNO_CAD_DATA": "" }, "geometry": { "type": "Point", "coordinates": [ -122.35695, 47.63656 ] } },
{ "type": "Feature", "properties": { "STUDY_DIRFLOW": "S", "STUDY_ADT": 7837, "STDY_TITLE_PART": "RAINIER AVE S, N/O S ALASKA ST", "STDY_YEAR": 2023, "SE_ANNO_CAD_DATA": "" }, "geometry": { "type": "Point", "coordinates": [ -122.28755, 47.56176 ] } },
{ "type": "Feature", "properties": { "STUDY_DIRFLOW": "N", "STUDY_ADT": 7146, "STDY_TITLE_PART": "RAINIER AVE S, S/O S OTHELLO ST", "STDY_YEAR": 2021, "SE_ANNO_CAD_DATA": "" }, "geometry": { "type": "Point", "coordinates": [ -122.27015, 47.53644 ] } },
{ "type": "Feature", "properties": { "STUDY_DIRFLOW": "N", "STUDY_ADT": 9776, "STDY_TITLE_PART": "RAINIER AVE S, N/O S ALASKA ST", "STDY_YEAR": 2022, "SE_ANNO_CAD_DATA": "" }, "geometry": { "type": "Point", "coordinates": [ -122.28755, 47.56176 ] } },
{ "type": "Feature", "properties": { "STUDY_DIRFLOW": "SW", "STUDY_ADT": 8885, "STDY_TITLE_PART": "EAST GREEN LAKE WAY N, NE/O N 57TH ST", "STDY_YEAR": 2023, "SE_ANNO_CAD_DATA": "" }, "geometry": { "type": "Point", "coordinates": [ -122.33948, 47.67154 ] } },
{ "type": "Feature", "properties": { "STUDY_DIRFLOW": "N", "STUDY_ADT": 3456, "STDY_TITLE_PART": "LAKE WASHINGTON BLVD S, S/O S HORTON ST", "STDY_YEAR": 2023, "SE_ANNO_CAD_DATA": "" }, "geometry": { "type": "Point", "coordinates": [ -122.28042, 47.57135 ] } },
{ "type": "Feature", "properties": { "STUDY_DIRFLOW": "W", "STUDY_ADT": 2561, "STDY_TITLE_PART": "SW EDMUNDS ST, E/O CALIFORNIA AVE SW", "STDY_YEAR": 2021, "SE_ANNO_CAD_DATA": "" }, "geometry": { "type": "Point", "coordinates": [ -122.38617, 47.55932 ] } },
{ "type": "Feature", "properties": { "STUDY_DIRFLOW": "N", "STUDY_ADT": 3442, "STDY_TITLE_PART": "BEACON ER AVE S, N/O S WARSAW ST", "STDY_YEAR": 2020, "SE_ANNO_CAD_DATA": "" }, "geometry": { "type": "Point", "coordinates": [ -122.29957, 47.54392 ] } },
{ "type": "Feature", "properties": { "STUDY_DIRFLOW": "TOTAL", "STUDY_ADT": 27254, "STDY_TITLE_PART": "LAKE CITY WAY NE, NE/O NE 95TH ST", "STDY_YEAR": 2022, "SE_ANNO_CAD_DATA": "" }, "geometry": { "type": "Point", "coordinates": [ -122.30445, 47.69894 ] } },
{ "type": "Feature", "properties": { "STUDY_DIRFLOW": "SW", "STUDY_ADT": 6129, "STDY_TITLE_PART": "EAST GREEN LAKE WAY N, NE/O N 57TH ST", "STDY_YEAR": 2022, "SE_ANNO_CAD_DATA": "" }, "geometry": { "type": "Point", "coordinates": [ -122.33948, 47.67154 ] } },
{ "type": "Feature", "properties": { "STUDY_DIRFLOW": "SW", "STUDY_ADT": 4515, "STDY_TITLE_PART": "STEWART ST, NE/O 4TH AVE", "STDY_YEAR": 2020, "SE_ANNO_CAD_DATA": "" }, "geometry": { "type": "Point", "coordinates": [ -122.3383, 47.61263 ] } },
{ "type": "Feature", "properties": { "STUDY_DIRFLOW": "S", "STUDY_ADT": 3255, "STDY_TITLE_PART": "QUEEN ANNE AVE N, S/O CROCKETT ST", "STDY_YEAR": 2020, "SE_ANNO_CAD_DATA": "" }, "geometry": { "type": "Point", "coordinates": [ -122.35695, 47.63656 ] } },
{ "type": "Feature", "properties": { "STUDY_DIRFLOW": "S", "STUDY_ADT": 3212, "STDY_TITLE_PART": "QUEEN ANNE AVE N, S/O CROCKETT ST", "STDY_YEAR": 2020, "SE_ANNO_CAD_DATA": "" }, "geometry": { "type": "Point", "coordinates": [ -122.35695, 47.63656 ] } },
{ "type": "Feature", "properties": { "STUDY_DIRFLOW": "TOTAL", "STUDY_ADT": 5003, "STDY_TITLE_PART": "16TH AVE SW, N/O SW ROXBURY ST", "STDY_YEAR": 2021, "SE_ANNO_CAD_DATA": "" }, "geometry": { "type": "Point", "coordinates": [ -122.35515, 47.51828 ] } },
{ "type": "Feature", "properties": { "STUDY_DIRFLOW": "TOTAL", "STUDY_ADT": 14294, "STDY_TITLE_PART": "ALASKAN WAY, SE/O BLANCHARD ST", "STDY_YEAR": 2022, "SE_ANNO_CAD_DATA": "" }, "geometry": { "type": "Point", "coordinates": [ -122.34695, 47.61038 ] } },
{ "type": "Feature", "properties": { "STUDY_DIRFLOW": "TOTAL", "STUDY_ADT": 2762, "STDY_TITLE_PART": "PHINNEY AVE N, N/O N 48TH ST", "STDY_YEAR": 2021, "SE_ANNO_CAD_DATA": "" }, "geometry": { "type": "Point", "coordinates": [ -122.35397, 47.66395 ] } },
{ "type": "Feature", "properties": { "STUDY_DIRFLOW": "TOTAL", "STUDY_ADT": 1333, "STDY_TITLE_PART": "RAVENNA AVE NE, NE/O NE 105TH ST", "STDY_YEAR": 2023, "SE_ANNO_CAD_DATA": "" }, "geometry": { "type": "Point", "coordinates": [ -122.29683, 47.70544 ] } },
{ "type": "Feature", "properties": { "STUDY_DIRFLOW": "SW", "STUDY_ADT": 7451, "STDY_TITLE_PART": "STEWART ST, NE/O 4TH AVE", "STDY_YEAR": 2022, "SE_ANNO_CAD_DATA": "" }, "geometry": { "type": "Point", "coordinates": [ -122.3383, 47.61263 ] } },
{ "type": "Feature", "properties": { "STUDY_DIRFLOW": "TOTAL", "STUDY_ADT": 21231, "STDY_TITLE_PART": "SW HOLDEN ST, W/O 12TH AVE SW", "STDY_YEAR": 2021, "SE_ANNO_CAD_DATA": "" }, "geometry": { "type": "Point", "coordinates": [ -122.35111, 47.53413 ] } },
{ "type": "Feature", "properties": { "STUDY_DIRFLOW": "E", "STUDY_ADT": 1820, "STDY_TITLE_PART": "NE 73RD ST, E/O ROOSEVELT WAY NE", "STDY_YEAR": 2023, "SE_ANNO_CAD_DATA": "" }, "geometry": { "type": "Point", "coordinates": [ -122.31693, 47.68155 ] } },
{ "type": "Feature", "properties": { "STUDY_DIRFLOW": "E", "STUDY_ADT": 185, "STDY_TITLE_PART": "NE 82ND ST, E/O 18TH AVE NE", "STDY_YEAR": 2023, "SE_ANNO_CAD_DATA": "" }, "geometry": { "type": "Point", "coordinates": [ -122.30843, 47.68849 ] } },
{ "type": "Feature", "properties": { "STUDY_DIRFLOW": "TOTAL", "STUDY_ADT": 12441, "STDY_TITLE_PART": "35TH AVE SW, S/O SW GRAHAM ST", "STDY_YEAR": 2020, "SE_ANNO_CAD_DATA": "" }, "geometry": { "type": "Point", "coordinates": [ -122.37642, 47.54559 ] } },
{ "type": "Feature", "properties": { "STUDY_DIRFLOW": "E", "STUDY_ADT": 1286, "STDY_TITLE_PART": "S OTHELLO ST, E/O RAINIER AVE S", "STDY_YEAR": 2020, "SE_ANNO_CAD_DATA": "" }, "geometry": { "type": "Point", "coordinates": [ -122.26878, 47.53698 ] } },
{ "type": "Feature", "properties": { "STUDY_DIRFLOW": "S", "STUDY_ADT": 9841, "STDY_TITLE_PART": "UNIVERSITY BR, SW/O POINT A", "STDY_YEAR": 2021, "SE_ANNO_CAD_DATA": "" }, "geometry": { "type": "Point", "coordinates": [ -122.32092, 47.65203 ] } },
{ "type": "Feature", "properties": { "STUDY_DIRFLOW": "W", "STUDY_ADT": 9937, "STDY_TITLE_PART": "NW MARKET ST, W/O 8TH AVE NW", "STDY_YEAR": 2021, "SE_ANNO_CAD_DATA": "" }, "geometry": { "type": "Point", "coordinates": [ -122.36739, 47.66866 ] } },
{ "type": "Feature", "properties": { "STUDY_DIRFLOW": "TOTAL", "STUDY_ADT": 5942, "STDY_TITLE_PART": "3RD AVE, SE/O UNION ST", "STDY_YEAR": 2023, "SE_ANNO_CAD_DATA": "" }, "geometry": { "type": "Point", "coordinates": [ -122.33643, 47.60826 ] } },
{ "type": "Feature", "properties": { "STUDY_DIRFLOW": "N", "STUDY_ADT": 527, "STDY_TITLE_PART": "42ND AVE S, S/O S ORCAS ST", "STDY_YEAR": 2020, "SE_ANNO_CAD_DATA": "" }, "geometry": { "type": "Point", "coordinates": [ -122.28078, 47.55082 ] } },
{ "type": "Feature", "properties": { "STUDY_DIRFLOW": "S", "STUDY_ADT": 7724, "STDY_TITLE_PART": "RAINIER AVE S, N/O S ALASKA ST", "STDY_YEAR": 2023, "SE_ANNO_CAD_DATA": "" }, "geometry": { "type": "Point", "coordinates": [ -122.28755, 47.56176 ] } },
{ "type": "Feature", "properties": { "STUDY_DIRFLOW": "W", "STUDY_ADT": 2553, "STDY_TITLE_PART": "S COLLEGE ST, W/O 22ND AVE S", "STDY_YEAR": 2023, "SE_ANNO_CAD_DATA": "" }, "geometry": { "type": "Point", "coordinates": [ -122.30491, 47.58295 ] } },
{ "type": "Feature", "properties": { "STUDY_DIRFLOW": "S", "STUDY_ADT": 7740, "STDY_TITLE_PART": "SW AVALON WAY, N/O 30TH AVE SW", "STDY_YEAR": 2022, "SE_ANNO_CAD_DATA": "" }, "geometry": { "type": "Point", "coordinates": [ -122.37077, 47.56843 ] } },
{ "type": "Feature", "properties": { "STUDY_DIRFLOW": "SE", "STUDY_ADT": 2168, "STDY_TITLE_PART": "RAVENNA AVE NE, S/O NE 92ND ST", "STDY_YEAR": 2022, "SE_ANNO_CAD_DATA": "" }, "geometry": { "type": "Point", "coordinates": [ -122.30465, 47.69476 ] } },
{ "type": "Feature", "properties": { "STUDY_DIRFLOW": "TOTAL", "STUDY_ADT": 1164, "STDY_TITLE_PART": "17TH AVE S, N/O S MASSACHUSETTS ST", "STDY_YEAR": 2023, "SE_ANNO_CAD_DATA": "" }, "geometry": { "type": "Point", "coordinates": [ -122.31054, 47.58921 ] } },
{ "type": "Feature", "properties": { "STUDY_DIRFLOW": "W", "STUDY_ADT": 16624, "STDY_TITLE_PART": "DENNY WAY, W/O 2ND AVE", "STDY_YEAR": 2023, "SE_ANNO_CAD_DATA": "" }, "geometry": { "type": "Point", "coordinates": [ -122.3531, 47.61859 ] } },
{ "type": "Feature", "properties": { "STUDY_DIRFLOW": "TOTAL", "STUDY_ADT": 126, "STDY_TITLE_PART": "11TH AVE SW, S/O SW PORTLAND ST", "STDY_YEAR": 2020, "SE_ANNO_CAD_DATA": "" }, "geometry": { "type": "Point", "coordinates": [ -122.34931, 47.5326 ] } },
{ "type": "Feature", "properties": { "STUDY_DIRFLOW": "W", "STUDY_ADT": 3628, "STDY_TITLE_PART": "ALKI AVE SW, W/O HARBOR AVE SW", "STDY_YEAR": 2021, "SE_ANNO_CAD_DATA": "" }, "geometry": { "type": "Point", "coordinates": [ -122.38679, 47.59515 ] } },
{ "type": "Feature", "properties": { "STUDY_DIRFLOW": "S", "STUDY_ADT": 8241, "STDY_TITLE_PART": "RAINIER AVE S, N/O S ALASKA ST", "STDY_YEAR": 2022, "SE_ANNO_CAD_DATA": "" }, "geometry": { "type": "Point", "coordinates": [ -122.28755, 47.56176 ] } },
{ "type": "Feature", "properties": { "STUDY_DIRFLOW": "N", "STUDY_ADT": 6150, "STDY_TITLE_PART": "SAND POINT WAY NE, S/O NE 70TH ST", "STDY_YEAR": 2023, "SE_ANNO_CAD_DATA": "" }, "geometry": { "type": "Point", "coordinates": [ -122.26358, 47.67754 ] } },
{ "type": "Feature", "properties": { "STUDY_DIRFLOW": "S", "STUDY_ADT": 8660, "STDY_TITLE_PART": "RAINIER AVE S, S/O S OTHELLO ST", "STDY_YEAR": 2020, "SE_ANNO_CAD_DATA": "" }, "geometry": { "type": "Point", "coordinates": [ -122.27015, 47.53644 ] } },
{ "type": "Feature", "properties": { "STUDY_DIRFLOW": "S", "STUDY_ADT": 504, "STDY_TITLE_PART": "BROOKLYN AVE NE, N/O NE 47TH ST", "STDY_YEAR": 2023, "SE_ANNO_CAD_DATA": "" }, "geometry": { "type": "Point", "coordinates": [ -122.31422, 47.664 ] } },
{ "type": "Feature", "properties": { "STUDY_DIRFLOW": "W", "STUDY_ADT": 6063, "STDY_TITLE_PART": "E YESLER WAY, E/O 25TH AVE", "STDY_YEAR": 2021, "SE_ANNO_CAD_DATA": "" }, "geometry": { "type": "Point", "coordinates": [ -122.29944, 47.60166 ] } },
{ "type": "Feature", "properties": { "STUDY_DIRFLOW": "TOTAL", "STUDY_ADT": 11165, "STDY_TITLE_PART": "ALKI AVE SW, W/O HARBOR AVE SW", "STDY_YEAR": 2023, "SE_ANNO_CAD_DATA": "" }, "geometry": { "type": "Point", "coordinates": [ -122.38679, 47.59515 ] } },
{ "type": "Feature", "properties": { "STUDY_DIRFLOW": "TOTAL", "STUDY_ADT": 7695, "STDY_TITLE_PART": "S MCCLELLAN ST, E/O 31ST AVE S", "STDY_YEAR": 2021, "SE_ANNO_CAD_DATA": "" }, "geometry": { "type": "Point", "coordinates": [ -122.29246, 47.57835 ] } },
{ "type": "Feature", "properties": { "STUDY_DIRFLOW": "E", "STUDY_ADT": 12245, "STDY_TITLE_PART": "N 85TH ST, W/O ASHWORTH AVE N", "STDY_YEAR": 2023, "SE_ANNO_CAD_DATA": "" }, "geometry": { "type": "Point", "coordinates": [ -122.33968, 47.69053 ] } },
{ "type": "Feature", "properties": { "STUDY_DIRFLOW": "N", "STUDY_ADT": 803, "STDY_TITLE_PART": "8TH AVE S, S/O S THISTLE ST", "STDY_YEAR": 2020, "SE_ANNO_CAD_DATA": "" }, "geometry": { "type": "Point", "coordinates": [ -122.32289, 47.52774 ] } },
{ "type": "Feature", "properties": { "STUDY_DIRFLOW": "TOTAL", "STUDY_ADT": 13900, "STDY_TITLE_PART": "ALASKAN WAY, SE/O BLANCHARD ST", "STDY_YEAR": 2022, "SE_ANNO_CAD_DATA": "" }, "geometry": { "type": "Point", "coordinates": [ -122.34695, 47.61038 ] } },
{ "type": "Feature", "properties": { "STUDY_DIRFLOW": "N", "STUDY_ADT": 4622, "STDY_TITLE_PART": "16TH AVE S, N/O 16TH AVE S BR", "STDY_YEAR": 2020, "SE_ANNO_CAD_DATA": "" }, "geometry": { "type": "Point", "coordinates": [ -122.3136, 47.53139 ] } },
{ "type": "Feature", "properties": { "STUDY_DIRFLOW": "W", "STUDY_ADT": 85, "STDY_TITLE_PART": "S FOUNTAIN ST, E/O 53RD AVE S", "STDY_YEAR": 2021, "SE_ANNO_CAD_DATA": "" }, "geometry": { "type": "Point", "coordinates": [ -122.26618, 47.50367 ] } },
{ "type": "Feature", "properties": { "STUDY_DIRFLOW": "TOTAL", "STUDY_ADT": 224, "STDY_TITLE_PART": "6TH AVE NW, S/O NW 51ST ST", "STDY_YEAR": 2022, "SE_ANNO_CAD_DATA": "" }, "geometry": { "type": "Point", "coordinates": [ -122.36329, 47.66537 ] } },
{ "type": "Feature", "properties": { "STUDY_DIRFLOW": "TOTAL", "STUDY_ADT": 17411, "STDY_TITLE_PART": "FREMONT BR, N/O POINT A", "STDY_YEAR": 2020, "SE_ANNO_CAD_DATA": "" }, "geometry": { "type": "Point", "coordinates": [ -122.34975, 47.64761 ] } },
{ "type": "Feature", "properties": { "STUDY_DIRFLOW": "S", "STUDY_ADT": 1691, "STDY_TITLE_PART": "LINDEN AVE N, S/O N 83RD ST", "STDY_YEAR": 2023, "SE_ANNO_CAD_DATA": "" }, "geometry": { "type": "Point", "coordinates": [ -122.34722, 47.68875 ] } },
{ "type": "Feature", "properties": { "STUDY_DIRFLOW": "N", "STUDY_ADT": 4336, "STDY_TITLE_PART": "16TH AVE S, N/O 16TH AVE S BR", "STDY_YEAR": 2020, "SE_ANNO_CAD_DATA": "" }, "geometry": { "type": "Point", "coordinates": [ -122.3136, 47.53139 ] } },
{ "type": "Feature", "properties": { "STUDY_DIRFLOW": "S", "STUDY_ADT": 3258, "STDY_TITLE_PART": "QUEEN ANNE AVE N, S/O CROCKETT ST", "STDY_YEAR": 2023, "SE_ANNO_CAD_DATA": "" }, "geometry": { "type": "Point", "coordinates": [ -122.35695, 47.63656 ] } },
{ "type": "Feature", "properties": { "STUDY_DIRFLOW": "E", "STUDY_ADT": 3963, "STDY_TITLE_PART": "N 145TH ST, W/O GREENWOOD AVE N", "STDY_YEAR": 2021, "SE_ANNO_CAD_DATA": "" }, "geometry": { "type": "Point", "coordinates": [ -122.35737, 47.73413 ] } },
{ "type": "Feature", "properties": { "STUDY_DIRFLOW": "S", "STUDY_ADT": 1635, "STDY_TITLE_PART": "WALLINGFORD AVE N, S/O N 43RD ST", "STDY_YEAR": 2020, "SE_ANNO_CAD_DATA": "" }, "geometry": { "type": "Point", "coordinates": [ -122.33622, 47.65857 ] } },
{ "type": "Feature", "properties": { "STUDY_DIRFLOW": "SE", "STUDY_ADT": 5639, "STDY_TITLE_PART": "ALASKAN WAY, SE/O BLANCHARD ST", "STDY_YEAR": 2020, "SE_ANNO_CAD_DATA": "" }, "geometry": { "type": "Point", "coordinates": [ -122.34695, 47.61038 ] } },
{ "type": "Feature", "properties": { "STUDY_DIRFLOW": "TOTAL", "STUDY_ADT": 28087, "STDY_TITLE_PART": "FREMONT BR, N/O POINT A", "STDY_YEAR": 2020, "SE_ANNO_CAD_DATA": "" }, "geometry": { "type": "Point", "coordinates": [ -122.34975, 47.64761 ] } },
{ "type": "Feature", "properties": { "STUDY_DIRFLOW": "TOTAL", "STUDY_ADT": 2124, "STDY_TITLE_PART": "20TH AVE NE, S/O NE 80TH ST", "STDY_YEAR": 2023, "SE_ANNO_CAD_DATA": "" }, "geometry": { "type": "Point", "coordinates": [ -122.30675, 47.68577 ] } },
{ "type": "Feature", "properties": { "STUDY_DIRFLOW": "W", "STUDY_ADT": 10089, "STDY_TITLE_PART": "NW MARKET ST, W/O 8TH AVE NW", "STDY_YEAR": 2022, "SE_ANNO_CAD_DATA": "" }, "geometry": { "type": "Point", "coordinates": [ -122.36739, 47.66866 ] } },
{ "type": "Feature", "properties": { "STUDY_DIRFLOW": "SE", "STUDY_ADT": 9427, "STDY_TITLE_PART": "2ND AVE, SE/O UNIVERSITY ST", "STDY_YEAR": 2022, "SE_ANNO_CAD_DATA": "" }, "geometry": { "type": "Point", "coordinates": [ -122.33676, 47.60694 ] } },
{ "type": "Feature", "properties": { "STUDY_DIRFLOW": "TOTAL", "STUDY_ADT": 14229, "STDY_TITLE_PART": "EAST GREEN LAKE WAY N, NE/O N 57TH ST", "STDY_YEAR": 2022, "SE_ANNO_CAD_DATA": "" }, "geometry": { "type": "Point", "coordinates": [ -122.33948, 47.67154 ] } },
{ "type": "Feature", "properties": { "STUDY_DIRFLOW": "N", "STUDY_ADT": 3942, "STDY_TITLE_PART": "MAGNOLIA BLVD W, N/O W GARFIELD ST", "STDY_YEAR": 2020, "SE_ANNO_CAD_DATA": "" }, "geometry": { "type": "Point", "coordinates": [ -122.39783, 47.6348 ] } },
{ "type": "Feature", "properties": { "STUDY_DIRFLOW": "S", "STUDY_ADT": 188, "STDY_TITLE_PART": "9TH AVE SW, S/O SW BARTON ST", "STDY_YEAR": 2020, "SE_ANNO_CAD_DATA": "" }, "geometry": { "type": "Point", "coordinates": [ -122.34671, 47.52006 ] } },
{ "type": "Feature", "properties": { "STUDY_DIRFLOW": "E", "STUDY_ADT": 1769, "STDY_TITLE_PART": "NE 44TH ST, E/O 25TH AVE NE", "STDY_YEAR": 2023, "SE_ANNO_CAD_DATA": "" }, "geometry": { "type": "Point", "coordinates": [ -122.30042, 47.6605 ] } },
{ "type": "Feature", "properties": { "STUDY_DIRFLOW": "SW", "STUDY_ADT": 7084, "STDY_TITLE_PART": "STEWART ST, NE/O 4TH AVE", "STDY_YEAR": 2021, "SE_ANNO_CAD_DATA": "" }, "geometry": { "type": "Point", "coordinates": [ -122.3383, 47.61263 ] } },
{ "type": "Feature", "properties": { "STUDY_DIRFLOW": "TOTAL", "STUDY_ADT": 4220, "STDY_TITLE_PART": "QUEEN ANNE AVE N, S/O CROCKETT ST", "STDY_YEAR": 2023, "SE_ANNO_CAD_DATA": "" }, "geometry": { "type": "Point", "coordinates": [ -122.35695, 47.63656 ] } },
{ "type": "Feature", "properties": { "STUDY_DIRFLOW": "E", "STUDY_ADT": 128, "STDY_TITLE_PART": "S FRONTENAC ST, W/O 30TH AVE S", "STDY_YEAR": 2021, "SE_ANNO_CAD_DATA": "" }, "geometry": { "type": "Point", "coordinates": [ -122.29512, 47.53998 ] } },
{ "type": "Feature", "properties": { "STUDY_DIRFLOW": "E", "STUDY_ADT": 308, "STDY_TITLE_PART": "SW CAMBRIDGE ST, E/O 8TH AVE SW", "STDY_YEAR": 2021, "SE_ANNO_CAD_DATA": "" }, "geometry": { "type": "Point", "coordinates": [ -122.3448, 47.51913 ] } },
{ "type": "Feature", "properties": { "STUDY_DIRFLOW": "E", "STUDY_ADT": 632, "STDY_TITLE_PART": "E BLAINE ST, E/O 42ND AVE E", "STDY_YEAR": 2023, "SE_ANNO_CAD_DATA": "" }, "geometry": { "type": "Point", "coordinates": [ -122.27784, 47.63456 ] } },
{ "type": "Feature", "properties": { "STUDY_DIRFLOW": "W", "STUDY_ADT": 17588, "STDY_TITLE_PART": "DENNY WAY, W/O 2ND AVE", "STDY_YEAR": 2021, "SE_ANNO_CAD_DATA": "" }, "geometry": { "type": "Point", "coordinates": [ -122.3531, 47.61859 ] } },
{ "type": "Feature", "properties": { "STUDY_DIRFLOW": "TOTAL", "STUDY_ADT": 2845, "STDY_TITLE_PART": "S WALKER ST, E/O 25TH AVE S", "STDY_YEAR": 2023, "SE_ANNO_CAD_DATA": "" }, "geometry": { "type": "Point", "coordinates": [ -122.29924, 47.58365 ] } },
{ "type": "Feature", "properties": { "STUDY_DIRFLOW": "TOTAL", "STUDY_ADT": 229, "STDY_TITLE_PART": "N 43RD ST, W/O WALLINGFORD AVE N", "STDY_YEAR": 2022, "SE_ANNO_CAD_DATA": "" }, "geometry": { "type": "Point", "coordinates": [ -122.33681, 47.65916 ] } },
{ "type": "Feature", "properties": { "STUDY_DIRFLOW": "TOTAL", "STUDY_ADT": 6665, "STDY_TITLE_PART": "N 80TH ST, W/O AURORA AVE N", "STDY_YEAR": 2021, "SE_ANNO_CAD_DATA": "" }, "geometry": { "type": "Point", "coordinates": [ -122.34586, 47.68694 ] } },
{ "type": "Feature", "properties": { "STUDY_DIRFLOW": "E", "STUDY_ADT": 309, "STDY_TITLE_PART": "S LEO ST, E/O 53RD AVE S", "STDY_YEAR": 2020, "SE_ANNO_CAD_DATA": "" }, "geometry": { "type": "Point", "coordinates": [ -122.26619, 47.50258 ] } },
{ "type": "Feature", "properties": { "STUDY_DIRFLOW": "TOTAL", "STUDY_ADT": 20369, "STDY_TITLE_PART": "UNIVERSITY BR, SW/O POINT A", "STDY_YEAR": 2023, "SE_ANNO_CAD_DATA": "" }, "geometry": { "type": "Point", "coordinates": [ -122.32092, 47.65203 ] } },
{ "type": "Feature", "properties": { "STUDY_DIRFLOW": "TOTAL", "STUDY_ADT": 3170, "STDY_TITLE_PART": "VALLEY ST, E/O 6TH AVE N", "STDY_YEAR": 2023, "SE_ANNO_CAD_DATA": "" }, "geometry": { "type": "Point", "coordinates": [ -122.34427, 47.62627 ] } },
{ "type": "Feature", "properties": { "STUDY_DIRFLOW": "S", "STUDY_ADT": 3667, "STDY_TITLE_PART": "2ND AVE SW, S/O WEST MARGINAL WAY SW", "STDY_YEAR": 2020, "SE_ANNO_CAD_DATA": "" }, "geometry": { "type": "Point", "coordinates": [ -122.33707, 47.53607 ] } },
{ "type": "Feature", "properties": { "STUDY_DIRFLOW": "TOTAL", "STUDY_ADT": 8024, "STDY_TITLE_PART": "12TH AVE E, N/O E JOHN ST", "STDY_YEAR": 2020, "SE_ANNO_CAD_DATA": "" }, "geometry": { "type": "Point", "coordinates": [ -122.31694, 47.62052 ] } },
{ "type": "Feature", "properties": { "STUDY_DIRFLOW": "W", "STUDY_ADT": 13490, "STDY_TITLE_PART": "N 85TH ST, W/O ASHWORTH AVE N", "STDY_YEAR": 2023, "SE_ANNO_CAD_DATA": "" }, "geometry": { "type": "Point", "coordinates": [ -122.33968, 47.69053 ] } },
{ "type": "Feature", "properties": { "STUDY_DIRFLOW": "N", "STUDY_ADT": 8560, "STDY_TITLE_PART": "RAINIER AVE S, N/O S ALASKA ST", "STDY_YEAR": 2023, "SE_ANNO_CAD_DATA": "" }, "geometry": { "type": "Point", "coordinates": [ -122.28755, 47.56176 ] } },
{ "type": "Feature", "properties": { "STUDY_DIRFLOW": "N", "STUDY_ADT": 8920, "STDY_TITLE_PART": "35TH AVE SW, S/O SW HOLDEN S ST", "STDY_YEAR": 2023, "SE_ANNO_CAD_DATA": "" }, "geometry": { "type": "Point", "coordinates": [ -122.37663, 47.53264 ] } },
{ "type": "Feature", "properties": { "STUDY_DIRFLOW": "SE", "STUDY_ADT": 12017, "STDY_TITLE_PART": "2ND AVE, SE/O SENECA ST", "STDY_YEAR": 2022, "SE_ANNO_CAD_DATA": "" }, "geometry": { "type": "Point", "coordinates": [ -122.33611, 47.60623 ] } },
{ "type": "Feature", "properties": { "STUDY_DIRFLOW": "W", "STUDY_ADT": 1456, "STDY_TITLE_PART": "SW HOLDEN ST, E/O 41ST AVE SW", "STDY_YEAR": 2023, "SE_ANNO_CAD_DATA": "" }, "geometry": { "type": "Point", "coordinates": [ -122.38332, 47.53359 ] } },
{ "type": "Feature", "properties": { "STUDY_DIRFLOW": "S", "STUDY_ADT": 16111, "STDY_TITLE_PART": "EAST MARGINAL WAY S, S/O S ALASKA ST", "STDY_YEAR": 2020, "SE_ANNO_CAD_DATA": "" }, "geometry": { "type": "Point", "coordinates": [ -122.33944, 47.55994 ] } },
{ "type": "Feature", "properties": { "STUDY_DIRFLOW": "TOTAL", "STUDY_ADT": 11771, "STDY_TITLE_PART": "N 80TH ST, W/O LINDEN AVE N", "STDY_YEAR": 2021, "SE_ANNO_CAD_DATA": "" }, "geometry": { "type": "Point", "coordinates": [ -122.34856, 47.68694 ] } },
{ "type": "Feature", "properties": { "STUDY_DIRFLOW": "E", "STUDY_ADT": 617, "STDY_TITLE_PART": "S CLOVERDALE ST, W/O 47TH AVE S", "STDY_YEAR": 2020, "SE_ANNO_CAD_DATA": "" }, "geometry": { "type": "Point", "coordinates": [ -122.27432, 47.52612 ] } },
{ "type": "Feature", "properties": { "STUDY_DIRFLOW": "TOTAL", "STUDY_ADT": 24989, "STDY_TITLE_PART": "RAINIER AVE S, S/O S OTHELLO ST", "STDY_YEAR": 2022, "SE_ANNO_CAD_DATA": "" }, "geometry": { "type": "Point", "coordinates": [ -122.27015, 47.53644 ] } },
{ "type": "Feature", "properties": { "STUDY_DIRFLOW": "SE", "STUDY_ADT": 6968, "STDY_TITLE_PART": "ALASKAN WAY, SE/O BLANCHARD ST", "STDY_YEAR": 2022, "SE_ANNO_CAD_DATA": "" }, "geometry": { "type": "Point", "coordinates": [ -122.34695, 47.61038 ] } },
{ "type": "Feature", "properties": { "STUDY_DIRFLOW": "W", "STUDY_ADT": 3720, "STDY_TITLE_PART": "ALKI AVE SW, W/O HARBOR AVE SW", "STDY_YEAR": 2022, "SE_ANNO_CAD_DATA": "" }, "geometry": { "type": "Point", "coordinates": [ -122.38679, 47.59515 ] } },
{ "type": "Feature", "properties": { "STUDY_DIRFLOW": "W", "STUDY_ADT": 2080, "STDY_TITLE_PART": "16TH AVE, N/O E PINE ST", "STDY_YEAR": 2021, "SE_ANNO_CAD_DATA": "" }, "geometry": { "type": "Point", "coordinates": [ -122.31146, 47.61586 ] } },
{ "type": "Feature", "properties": { "STUDY_DIRFLOW": "NE", "STUDY_ADT": 5340, "STDY_TITLE_PART": "EAST GREEN LAKE WAY N, NE/O N 57TH ST", "STDY_YEAR": 2022, "SE_ANNO_CAD_DATA": "" }, "geometry": { "type": "Point", "coordinates": [ -122.33948, 47.67154 ] } },
{ "type": "Feature", "properties": { "STUDY_DIRFLOW": "TOTAL", "STUDY_ADT": 5497, "STDY_TITLE_PART": "15TH AVE NE, S/O NE 55TH ST", "STDY_YEAR": 2023, "SE_ANNO_CAD_DATA": "" }, "geometry": { "type": "Point", "coordinates": [ -122.3119, 47.66748 ] } },
{ "type": "Feature", "properties": { "STUDY_DIRFLOW": "SE", "STUDY_ADT": 11720, "STDY_TITLE_PART": "RAINIER AVE S, SE/O S BAYVIEW ST", "STDY_YEAR": 2023, "SE_ANNO_CAD_DATA": "" }, "geometry": { "type": "Point", "coordinates": [ -122.29916, 47.57967 ] } },
{ "type": "Feature", "properties": { "STUDY_DIRFLOW": "TOTAL", "STUDY_ADT": 1671, "STDY_TITLE_PART": "39TH AVE S, S/O S CAMBRIDGE ST", "STDY_YEAR": 2023, "SE_ANNO_CAD_DATA": "" }, "geometry": { "type": "Point", "coordinates": [ -122.28367, 47.51779 ] } },
{ "type": "Feature", "properties": { "STUDY_DIRFLOW": "W", "STUDY_ADT": 1987, "STDY_TITLE_PART": "NE 95TH ST, E/O 27TH AVE NE", "STDY_YEAR": 2020, "SE_ANNO_CAD_DATA": "" }, "geometry": { "type": "Point", "coordinates": [ -122.2974, 47.69751 ] } },
{ "type": "Feature", "properties": { "STUDY_DIRFLOW": "TOTAL", "STUDY_ADT": 662, "STDY_TITLE_PART": "SW FLORIDA ST, E/O 13TH AVE SW", "STDY_YEAR": 2022, "SE_ANNO_CAD_DATA": "" }, "geometry": { "type": "Point", "coordinates": [ -122.35148, 47.58437 ] } },
{ "type": "Feature", "properties": { "STUDY_DIRFLOW": "SE", "STUDY_ADT": 3396, "STDY_TITLE_PART": "3RD AVE, SE/O UNION ST", "STDY_YEAR": 2021, "SE_ANNO_CAD_DATA": "" }, "geometry": { "type": "Point", "coordinates": [ -122.33643, 47.60826 ] } },
{ "type": "Feature", "properties": { "STUDY_DIRFLOW": "N", "STUDY_ADT": 1920, "STDY_TITLE_PART": "15TH AVE E, N/O E PROSPECT N ST", "STDY_YEAR": 2020, "SE_ANNO_CAD_DATA": "" }, "geometry": { "type": "Point", "coordinates": [ -122.31253, 47.62967 ] } },
{ "type": "Feature", "properties": { "STUDY_DIRFLOW": "TOTAL", "STUDY_ADT": 609, "STDY_TITLE_PART": "N 106TH ST, E/O MERIDIAN AVE N", "STDY_YEAR": 2022, "SE_ANNO_CAD_DATA": "" }, "geometry": { "type": "Point", "coordinates": [ -122.33328, 47.70594 ] } },
{ "type": "Feature", "properties": { "STUDY_DIRFLOW": "TOTAL", "STUDY_ADT": 5442, "STDY_TITLE_PART": "50TH AVE S, S/O S OREGON ST", "STDY_YEAR": 2020, "SE_ANNO_CAD_DATA": "" }, "geometry": { "type": "Point", "coordinates": [ -122.27072, 47.56235 ] } },
{ "type": "Feature", "properties": { "STUDY_DIRFLOW": "E", "STUDY_ADT": 3530, "STDY_TITLE_PART": "ALKI AVE SW, W/O HARBOR AVE SW", "STDY_YEAR": 2022, "SE_ANNO_CAD_DATA": "" }, "geometry": { "type": "Point", "coordinates": [ -122.38679, 47.59515 ] } },
{ "type": "Feature", "properties": { "STUDY_DIRFLOW": "N", "STUDY_ADT": 3373, "STDY_TITLE_PART": "MERIDIAN AVE N, S/O N 49TH ST", "STDY_YEAR": 2023, "SE_ANNO_CAD_DATA": "" }, "geometry": { "type": "Point", "coordinates": [ -122.33373, 47.66394 ] } },
{ "type": "Feature", "properties": { "STUDY_DIRFLOW": "N", "STUDY_ADT": 132, "STDY_TITLE_PART": "36TH AVE SW, S/O SW BARTON ST", "STDY_YEAR": 2020, "SE_ANNO_CAD_DATA": "" }, "geometry": { "type": "Point", "coordinates": [ -122.37813, 47.52018 ] } },
{ "type": "Feature", "properties": { "STUDY_DIRFLOW": "N", "STUDY_ADT": 4024, "STDY_TITLE_PART": "AIRPORT WAY S, N/O S HORTON N ST", "STDY_YEAR": 2021, "SE_ANNO_CAD_DATA": "" }, "geometry": { "type": "Point", "coordinates": [ -122.3214, 47.57498 ] } },
{ "type": "Feature", "properties": { "STUDY_DIRFLOW": "S", "STUDY_ADT": 2890, "STDY_TITLE_PART": "MERIDIAN AVE N, S/O N 49TH ST", "STDY_YEAR": 2023, "SE_ANNO_CAD_DATA": "" }, "geometry": { "type": "Point", "coordinates": [ -122.33373, 47.66394 ] } },
{ "type": "Feature", "properties": { "STUDY_DIRFLOW": "SE", "STUDY_ADT": 6196, "STDY_TITLE_PART": "ELLIOTT AVE, SE/O WALL ST", "STDY_YEAR": 2023, "SE_ANNO_CAD_DATA": "" }, "geometry": { "type": "Point", "coordinates": [ -122.35, 47.61309 ] } },
{ "type": "Feature", "properties": { "STUDY_DIRFLOW": "E", "STUDY_ADT": 1457, "STDY_TITLE_PART": "NE 103RD ST, E/O 3RD AVE NE", "STDY_YEAR": 2020, "SE_ANNO_CAD_DATA": "" }, "geometry": { "type": "Point", "coordinates": [ -122.3245, 47.70315 ] } },
{ "type": "Feature", "properties": { "STUDY_DIRFLOW": "N", "STUDY_ADT": 2709, "STDY_TITLE_PART": "1ST AVE NE, N/O NE 100TH ST", "STDY_YEAR": 2023, "SE_ANNO_CAD_DATA": "" }, "geometry": { "type": "Point", "coordinates": [ -122.32851, 47.70227 ] } },
{ "type": "Feature", "properties": { "STUDY_DIRFLOW": "N", "STUDY_ADT": 7241, "STDY_TITLE_PART": "M L KING JR ER WAY S, N/O S ANDOVER ST", "STDY_YEAR": 2021, "SE_ANNO_CAD_DATA": "" }, "geometry": { "type": "Point", "coordinates": [ -122.29677, 47.56982 ] } },
{ "type": "Feature", "properties": { "STUDY_DIRFLOW": "E", "STUDY_ADT": 1831, "STDY_TITLE_PART": "S ORCAS ST, E/O 51ST AVE S", "STDY_YEAR": 2023, "SE_ANNO_CAD_DATA": "" }, "geometry": { "type": "Point", "coordinates": [ -122.26859, 47.55113 ] } },
{ "type": "Feature", "properties": { "STUDY_DIRFLOW": "W", "STUDY_ADT": 11453, "STDY_TITLE_PART": "NW MARKET ST, W/O 8TH AVE NW", "STDY_YEAR": 2020, "SE_ANNO_CAD_DATA": "" }, "geometry": { "type": "Point", "coordinates": [ -122.36739, 47.66866 ] } },
{ "type": "Feature", "properties": { "STUDY_DIRFLOW": "TOTAL", "STUDY_ADT": 6053, "STDY_TITLE_PART": "EAST GREEN LAKE WAY N, NE/O N 57TH ST", "STDY_YEAR": 2021, "SE_ANNO_CAD_DATA": "" }, "geometry": { "type": "Point", "coordinates": [ -122.33948, 47.67154 ] } },
{ "type": "Feature", "properties": { "STUDY_DIRFLOW": "N", "STUDY_ADT": 8025, "STDY_TITLE_PART": "UNIVERSITY BR, SW/O POINT A", "STDY_YEAR": 2022, "SE_ANNO_CAD_DATA": "" }, "geometry": { "type": "Point", "coordinates": [ -122.32092, 47.65203 ] } },
{ "type": "Feature", "properties": { "STUDY_DIRFLOW": "TOTAL", "STUDY_ADT": 1047, "STDY_TITLE_PART": "MARINE VIEW DR SW, W/O 39TH AVE SW", "STDY_YEAR": 2023, "SE_ANNO_CAD_DATA": "" }, "geometry": { "type": "Point", "coordinates": [ -122.38277, 47.50646 ] } },
{ "type": "Feature", "properties": { "STUDY_DIRFLOW": "TOTAL", "STUDY_ADT": 348, "STDY_TITLE_PART": "14TH AVE SW, S/O SW CAMBRIDGE ST", "STDY_YEAR": 2020, "SE_ANNO_CAD_DATA": "" }, "geometry": { "type": "Point", "coordinates": [ -122.35288, 47.51827 ] } },
{ "type": "Feature", "properties": { "STUDY_DIRFLOW": "N", "STUDY_ADT": 1453, "STDY_TITLE_PART": "6TH AVE W, N/O W HOWE ST", "STDY_YEAR": 2023, "SE_ANNO_CAD_DATA": "" }, "geometry": { "type": "Point", "coordinates": [ -122.36499, 47.63686 ] } },
{ "type": "Feature", "properties": { "STUDY_DIRFLOW": "E", "STUDY_ADT": 4330, "STDY_TITLE_PART": "EAST GREEN LAKE WAY N, W/O 1ST AVE NE", "STDY_YEAR": 2020, "SE_ANNO_CAD_DATA": "" }, "geometry": { "type": "Point", "coordinates": [ -122.32883, 47.67833 ] } },
{ "type": "Feature", "properties": { "STUDY_DIRFLOW": "S", "STUDY_ADT": 10579, "STDY_TITLE_PART": "FREMONT BR, N/O POINT A", "STDY_YEAR": 2023, "SE_ANNO_CAD_DATA": "" }, "geometry": { "type": "Point", "coordinates": [ -122.34975, 47.64761 ] } },
{ "type": "Feature", "properties": { "STUDY_DIRFLOW": "S", "STUDY_ADT": 8337, "STDY_TITLE_PART": "RAINIER AVE S, S/O S OTHELLO ST", "STDY_YEAR": 2021, "SE_ANNO_CAD_DATA": "" }, "geometry": { "type": "Point", "coordinates": [ -122.27015, 47.53644 ] } },
{ "type": "Feature", "properties": { "STUDY_DIRFLOW": "TOTAL", "STUDY_ADT": 7726, "STDY_TITLE_PART": "QUEEN ANNE AVE N, S/O CROCKETT ST", "STDY_YEAR": 2023, "SE_ANNO_CAD_DATA": "" }, "geometry": { "type": "Point", "coordinates": [ -122.35695, 47.63656 ] } },
{ "type": "Feature", "properties": { "STUDY_DIRFLOW": "TOTAL", "STUDY_ADT": 16485, "STDY_TITLE_PART": "RAINIER AVE S, S/O S OTHELLO ST", "STDY_YEAR": 2021, "SE_ANNO_CAD_DATA": "" }, "geometry": { "type": "Point", "coordinates": [ -122.27015, 47.53644 ] } },
{ "type": "Feature", "properties": { "STUDY_DIRFLOW": "SE", "STUDY_ADT": 5219, "STDY_TITLE_PART": "ALASKAN WAY, SE/O BLANCHARD ST", "STDY_YEAR": 2021, "SE_ANNO_CAD_DATA": "" }, "geometry": { "type": "Point", "coordinates": [ -122.34695, 47.61038 ] } },
{ "type": "Feature", "properties": { "STUDY_DIRFLOW": "NE", "STUDY_ADT": 5125, "STDY_TITLE_PART": "EAST GREEN LAKE WAY N, NE/O N 57TH ST", "STDY_YEAR": 2023, "SE_ANNO_CAD_DATA": "" }, "geometry": { "type": "Point", "coordinates": [ -122.33948, 47.67154 ] } },
{ "type": "Feature", "properties": { "STUDY_DIRFLOW": "W", "STUDY_ADT": 743, "STDY_TITLE_PART": "NE 40TH ST, W/O UNIVERSITY WAY NE", "STDY_YEAR": 2023, "SE_ANNO_CAD_DATA": "" }, "geometry": { "type": "Point", "coordinates": [ -122.31387, 47.65536 ] } },
{ "type": "Feature", "properties": { "STUDY_DIRFLOW": "E", "STUDY_ADT": 675, "STDY_TITLE_PART": "S MASSACHUSETTS ST, W/O 14TH AVE S", "STDY_YEAR": 2022, "SE_ANNO_CAD_DATA": "" }, "geometry": { "type": "Point", "coordinates": [ -122.31542, 47.58844 ] } },
{ "type": "Feature", "properties": { "STUDY_DIRFLOW": "TOTAL", "STUDY_ADT": 249, "STDY_TITLE_PART": "S WEBSTER ST, E/O 44TH AVE S", "STDY_YEAR": 2023, "SE_ANNO_CAD_DATA": "" }, "geometry": { "type": "Point", "coordinates": [ -122.27711, 47.53522 ] } },
{ "type": "Feature", "properties": { "STUDY_DIRFLOW": "N", "STUDY_ADT": 183, "STDY_TITLE_PART": "47TH AVE SW, S/O SW WILDWOOD PL", "STDY_YEAR": 2021, "SE_ANNO_CAD_DATA": "" }, "geometry": { "type": "Point", "coordinates": [ -122.39254, 47.5205 ] } },
{ "type": "Feature", "properties": { "STUDY_DIRFLOW": "E", "STUDY_ADT": 1076, "STDY_TITLE_PART": "S LANDER ST, W/O 6TH AVE S", "STDY_YEAR": 2020, "SE_ANNO_CAD_DATA": "" }, "geometry": { "type": "Point", "coordinates": [ -122.32636, 47.57981 ] } },
{ "type": "Feature", "properties": { "STUDY_DIRFLOW": "E", "STUDY_ADT": 3168, "STDY_TITLE_PART": "ROY ST, E/O 3RD AVE N", "STDY_YEAR": 2023, "SE_ANNO_CAD_DATA": "" }, "geometry": { "type": "Point", "coordinates": [ -122.35083, 47.62544 ] } },
{ "type": "Feature", "properties": { "STUDY_DIRFLOW": "N", "STUDY_ADT": 7194, "STDY_TITLE_PART": "M L KING JR ER WAY S, N/O S ALASKA ST", "STDY_YEAR": 2023, "SE_ANNO_CAD_DATA": "" }, "geometry": { "type": "Point", "coordinates": [ -122.2939, 47.56185 ] } },
{ "type": "Feature", "properties": { "STUDY_DIRFLOW": "TOTAL", "STUDY_ADT": 22068, "STDY_TITLE_PART": "NW MARKET ST, W/O 8TH AVE NW", "STDY_YEAR": 2023, "SE_ANNO_CAD_DATA": "" }, "geometry": { "type": "Point", "coordinates": [ -122.36739, 47.66866 ] } },
{ "type": "Feature", "properties": { "STUDY_DIRFLOW": "TOTAL", "STUDY_ADT": 3685, "STDY_TITLE_PART": "SW SPOKANE BR, W/O SW SPOKANE E ST", "STDY_YEAR": 2022, "SE_ANNO_CAD_DATA": "" }, "geometry": { "type": "Point", "coordinates": [ -122.35356, 47.57138 ] } },
{ "type": "Feature", "properties": { "STUDY_DIRFLOW": "N", "STUDY_ADT": 3814, "STDY_TITLE_PART": "STONE WAY N, S/O N 45TH ST", "STDY_YEAR": 2022, "SE_ANNO_CAD_DATA": "" }, "geometry": { "type": "Point", "coordinates": [ -122.34216, 47.66103 ] } },
{ "type": "Feature", "properties": { "STUDY_DIRFLOW": "TOTAL", "STUDY_ADT": 3874, "STDY_TITLE_PART": "THORNDYKE AVE W, NE/O W BOSTON ST", "STDY_YEAR": 2021, "SE_ANNO_CAD_DATA": "" }, "geometry": { "type": "Point", "coordinates": [ -122.38768, 47.63878 ] } },
{ "type": "Feature", "properties": { "STUDY_DIRFLOW": "TOTAL", "STUDY_ADT": 10667, "STDY_TITLE_PART": "EAST GREEN LAKE WAY N, NE/O N 57TH ST", "STDY_YEAR": 2021, "SE_ANNO_CAD_DATA": "" }, "geometry": { "type": "Point", "coordinates": [ -122.33948, 47.67154 ] } },
{ "type": "Feature", "properties": { "STUDY_DIRFLOW": "S", "STUDY_ADT": 15, "STDY_TITLE_PART": "34TH AVE S, S/O S MOUNT BAKER EB BV", "STDY_YEAR": 2020, "SE_ANNO_CAD_DATA": "" }, "geometry": { "type": "Point", "coordinates": [ -122.28984, 47.57598 ] } },
{ "type": "Feature", "properties": { "STUDY_DIRFLOW": "W", "STUDY_ADT": 6875, "STDY_TITLE_PART": "NE 75TH ST, W/O 30TH AVE NE", "STDY_YEAR": 2020, "SE_ANNO_CAD_DATA": "" }, "geometry": { "type": "Point", "coordinates": [ -122.29654, 47.68305 ] } },
{ "type": "Feature", "properties": { "STUDY_DIRFLOW": "TOTAL", "STUDY_ADT": 4933, "STDY_TITLE_PART": "30TH AVE NE, N/O LAKE CITY N WAY NE", "STDY_YEAR": 2021, "SE_ANNO_CAD_DATA": "" }, "geometry": { "type": "Point", "coordinates": [ -122.29633, 47.71845 ] } },
{ "type": "Feature", "properties": { "STUDY_DIRFLOW": "S", "STUDY_ADT": 74, "STDY_TITLE_PART": "6TH AVE SW, S/O SW CAMBRIDGE ST", "STDY_YEAR": 2021, "SE_ANNO_CAD_DATA": "" }, "geometry": { "type": "Point", "coordinates": [ -122.34288, 47.5182 ] } },
{ "type": "Feature", "properties": { "STUDY_DIRFLOW": "TOTAL", "STUDY_ADT": 32160, "STDY_TITLE_PART": "EAST MARGINAL WAY S, S/O S ALASKA ST", "STDY_YEAR": 2020, "SE_ANNO_CAD_DATA": "" }, "geometry": { "type": "Point", "coordinates": [ -122.33944, 47.55994 ] } },
{ "type": "Feature", "properties": { "STUDY_DIRFLOW": "N", "STUDY_ADT": 428, "STDY_TITLE_PART": "25TH AVE SW, S/O SW HENDERSON ST", "STDY_YEAR": 2021, "SE_ANNO_CAD_DATA": "" }, "geometry": { "type": "Point", "coordinates": [ -122.36454, 47.52194 ] } },
{ "type": "Feature", "properties": { "STUDY_DIRFLOW": "S", "STUDY_ADT": 5265, "STDY_TITLE_PART": "9TH AVE N, S/O ROY ST", "STDY_YEAR": 2023, "SE_ANNO_CAD_DATA": "" }, "geometry": { "type": "Point", "coordinates": [ -122.33974, 47.62504 ] } },
{ "type": "Feature", "properties": { "STUDY_DIRFLOW": "TOTAL", "STUDY_ADT": 7871, "STDY_TITLE_PART": "15TH AVE NE, S/O NE 65TH ST", "STDY_YEAR": 2021, "SE_ANNO_CAD_DATA": "" }, "geometry": { "type": "Point", "coordinates": [ -122.31193, 47.67527 ] } },
{ "type": "Feature", "properties": { "STUDY_DIRFLOW": "TOTAL", "STUDY_ADT": 5510, "STDY_TITLE_PART": "E CHERRY ST, E/O 18TH AVE", "STDY_YEAR": 2022, "SE_ANNO_CAD_DATA": "" }, "geometry": { "type": "Point", "coordinates": [ -122.30828, 47.60802 ] } },
{ "type": "Feature", "properties": { "STUDY_DIRFLOW": "TOTAL", "STUDY_ADT": 11734, "STDY_TITLE_PART": "ALASKAN WAY, SE/O BLANCHARD ST", "STDY_YEAR": 2020, "SE_ANNO_CAD_DATA": "" }, "geometry": { "type": "Point", "coordinates": [ -122.34695, 47.61038 ] } },
{ "type": "Feature", "properties": { "STUDY_DIRFLOW": "S", "STUDY_ADT": 6436, "STDY_TITLE_PART": "M L KING JR WR WAY S, S/O S COLUMBIAN WAY", "STDY_YEAR": 2022, "SE_ANNO_CAD_DATA": "" }, "geometry": { "type": "Point", "coordinates": [ -122.29443, 47.5623 ] } },
{ "type": "Feature", "properties": { "STUDY_DIRFLOW": "N", "STUDY_ADT": 68, "STDY_TITLE_PART": "5TH AVE SW, S/O SW CAMBRIDGE ST", "STDY_YEAR": 2020, "SE_ANNO_CAD_DATA": "" }, "geometry": { "type": "Point", "coordinates": [ -122.34161, 47.51819 ] } },
{ "type": "Feature", "properties": { "STUDY_DIRFLOW": "TOTAL", "STUDY_ADT": 53092, "STDY_TITLE_PART": "EAST MARGINAL WAY S, S/O S ALASKA ST", "STDY_YEAR": 2021, "SE_ANNO_CAD_DATA": "" }, "geometry": { "type": "Point", "coordinates": [ -122.33944, 47.55994 ] } },
{ "type": "Feature", "properties": { "STUDY_DIRFLOW": "N", "STUDY_ADT": 7710, "STDY_TITLE_PART": "M L KING JR ER WAY S, N/O S ANDOVER ST", "STDY_YEAR": 2020, "SE_ANNO_CAD_DATA": "" }, "geometry": { "type": "Point", "coordinates": [ -122.29677, 47.56982 ] } },
{ "type": "Feature", "properties": { "STUDY_DIRFLOW": "TOTAL", "STUDY_ADT": 5769, "STDY_TITLE_PART": "QUEEN ANNE AVE N, S/O CROCKETT ST", "STDY_YEAR": 2020, "SE_ANNO_CAD_DATA": "" }, "geometry": { "type": "Point", "coordinates": [ -122.35695, 47.63656 ] } },
{ "type": "Feature", "properties": { "STUDY_DIRFLOW": "TOTAL", "STUDY_ADT": 5998, "STDY_TITLE_PART": "QUEEN ANNE AVE N, S/O CROCKETT ST", "STDY_YEAR": 2020, "SE_ANNO_CAD_DATA": "" }, "geometry": { "type": "Point", "coordinates": [ -122.35695, 47.63656 ] } },
{ "type": "Feature", "properties": { "STUDY_DIRFLOW": "E", "STUDY_ADT": 6899, "STDY_TITLE_PART": "NE NORTHGATE WAY, W/O 15TH AVE NE", "STDY_YEAR": 2022, "SE_ANNO_CAD_DATA": "" }, "geometry": { "type": "Point", "coordinates": [ -122.31311, 47.70853 ] } },
{ "type": "Feature", "properties": { "STUDY_DIRFLOW": "SE", "STUDY_ADT": 1944, "STDY_TITLE_PART": "ALASKAN WAY, SE/O BLANCHARD ST", "STDY_YEAR": 2023, "SE_ANNO_CAD_DATA": "" }, "geometry": { "type": "Point", "coordinates": [ -122.34695, 47.61038 ] } },
{ "type": "Feature", "properties": { "STUDY_DIRFLOW": "N", "STUDY_ADT": 7663, "STDY_TITLE_PART": "RAINIER AVE S, N/O S CLOVERDALE ST", "STDY_YEAR": 2023, "SE_ANNO_CAD_DATA": "" }, "geometry": { "type": "Point", "coordinates": [ -122.26998, 47.52704 ] } },
{ "type": "Feature", "properties": { "STUDY_DIRFLOW": "TOTAL", "STUDY_ADT": 20246, "STDY_TITLE_PART": "UNIVERSITY BR, SW/O POINT A", "STDY_YEAR": 2023, "SE_ANNO_CAD_DATA": "" }, "geometry": { "type": "Point", "coordinates": [ -122.32092, 47.65203 ] } },
{ "type": "Feature", "properties": { "STUDY_DIRFLOW": "TOTAL", "STUDY_ADT": 5636, "STDY_TITLE_PART": "CORSON AVE S, S/O S WARSAW ST", "STDY_YEAR": 2020, "SE_ANNO_CAD_DATA": "" }, "geometry": { "type": "Point", "coordinates": [ -122.32291, 47.54294 ] } },
{ "type": "Feature", "properties": { "STUDY_DIRFLOW": "S", "STUDY_ADT": 3236, "STDY_TITLE_PART": "23RD AVE S, S/O S HORTON ST", "STDY_YEAR": 2020, "SE_ANNO_CAD_DATA": "" }, "geometry": { "type": "Point", "coordinates": [ -122.30337, 47.57357 ] } },
{ "type": "Feature", "properties": { "STUDY_DIRFLOW": "SE", "STUDY_ADT": 816, "STDY_TITLE_PART": "DALLAS AVE S, SE/O 12TH AVE S", "STDY_YEAR": 2021, "SE_ANNO_CAD_DATA": "" }, "geometry": { "type": "Point", "coordinates": [ -122.3166, 47.5279 ] } },
{ "type": "Feature", "properties": { "STUDY_DIRFLOW": "E", "STUDY_ADT": 5372, "STDY_TITLE_PART": "N 130TH ST, E/O LINDEN AVE N", "STDY_YEAR": 2023, "SE_ANNO_CAD_DATA": "" }, "geometry": { "type": "Point", "coordinates": [ -122.34659, 47.72321 ] } },
{ "type": "Feature", "properties": { "STUDY_DIRFLOW": "S", "STUDY_ADT": 11118, "STDY_TITLE_PART": "WEST MARGINAL WAY SW, N/O SW IDAHO ST", "STDY_YEAR": 2020, "SE_ANNO_CAD_DATA": "" }, "geometry": { "type": "Point", "coordinates": [ -122.35339, 47.5663 ] } },
{ "type": "Feature", "properties": { "STUDY_DIRFLOW": "W", "STUDY_ADT": 2555, "STDY_TITLE_PART": "W DRAVUS ST, E/O 14TH AVE W", "STDY_YEAR": 2021, "SE_ANNO_CAD_DATA": "" }, "geometry": { "type": "Point", "coordinates": [ -122.37423, 47.64847 ] } },
{ "type": "Feature", "properties": { "STUDY_DIRFLOW": "E", "STUDY_ADT": 11388, "STDY_TITLE_PART": "NW MARKET ST, W/O 8TH AVE NW", "STDY_YEAR": 2022, "SE_ANNO_CAD_DATA": "" }, "geometry": { "type": "Point", "coordinates": [ -122.36739, 47.66866 ] } },
{ "type": "Feature", "properties": { "STUDY_DIRFLOW": "TOTAL", "STUDY_ADT": 15096, "STDY_TITLE_PART": "M L KING JR ER WAY S, N/O S ANDOVER ST", "STDY_YEAR": 2022, "SE_ANNO_CAD_DATA": "" }, "geometry": { "type": "Point", "coordinates": [ -122.29677, 47.56982 ] } },
{ "type": "Feature", "properties": { "STUDY_DIRFLOW": "S", "STUDY_ADT": 6609, "STDY_TITLE_PART": "ROOSEVELT WAY NE, S/O NE 66TH ST", "STDY_YEAR": 2020, "SE_ANNO_CAD_DATA": "" }, "geometry": { "type": "Point", "coordinates": [ -122.31737, 47.67619 ] } },
{ "type": "Feature", "properties": { "STUDY_DIRFLOW": "TOTAL", "STUDY_ADT": 8331, "STDY_TITLE_PART": "S LANDER ST, W/O 6TH AVE S", "STDY_YEAR": 2022, "SE_ANNO_CAD_DATA": "" }, "geometry": { "type": "Point", "coordinates": [ -122.32636, 47.57981 ] } },
{ "type": "Feature", "properties": { "STUDY_DIRFLOW": "TOTAL", "STUDY_ADT": 15266, "STDY_TITLE_PART": "N 85TH ST, W/O ASHWORTH AVE N", "STDY_YEAR": 2020, "SE_ANNO_CAD_DATA": "" }, "geometry": { "type": "Point", "coordinates": [ -122.33968, 47.69053 ] } },
{ "type": "Feature", "properties": { "STUDY_DIRFLOW": "W", "STUDY_ADT": 3764, "STDY_TITLE_PART": "YESLER WAY, E/O 6TH AVE", "STDY_YEAR": 2021, "SE_ANNO_CAD_DATA": "" }, "geometry": { "type": "Point", "coordinates": [ -122.32515, 47.6017 ] } },
{ "type": "Feature", "properties": { "STUDY_DIRFLOW": "N", "STUDY_ADT": 4190, "STDY_TITLE_PART": "5TH AVE NE, N/O NE NORTHGATE WAY", "STDY_YEAR": 2021, "SE_ANNO_CAD_DATA": "" }, "geometry": { "type": "Point", "coordinates": [ -122.32329, 47.70909 ] } },
{ "type": "Feature", "properties": { "STUDY_DIRFLOW": "S", "STUDY_ADT": 9261, "STDY_TITLE_PART": "M L KING JR WR WAY S, N/O S ANDOVER ST", "STDY_YEAR": 2020, "SE_ANNO_CAD_DATA": "" }, "geometry": { "type": "Point", "coordinates": [ -122.29699, 47.56861 ] } },
{ "type": "Feature", "properties": { "STUDY_DIRFLOW": "TOTAL", "STUDY_ADT": 3998, "STDY_TITLE_PART": "3RD AVE, SE/O UNION ST", "STDY_YEAR": 2023, "SE_ANNO_CAD_DATA": "" }, "geometry": { "type": "Point", "coordinates": [ -122.33643, 47.60826 ] } },
{ "type": "Feature", "properties": { "STUDY_DIRFLOW": "TOTAL", "STUDY_ADT": 24232, "STDY_TITLE_PART": "N 85TH ST, W/O ASHWORTH AVE N", "STDY_YEAR": 2023, "SE_ANNO_CAD_DATA": "" }, "geometry": { "type": "Point", "coordinates": [ -122.33968, 47.69053 ] } },
{ "type": "Feature", "properties": { "STUDY_DIRFLOW": "E", "STUDY_ADT": 12553, "STDY_TITLE_PART": "DENNY WAY, W/O 2ND AVE", "STDY_YEAR": 2023, "SE_ANNO_CAD_DATA": "" }, "geometry": { "type": "Point", "coordinates": [ -122.3531, 47.61859 ] } },
{ "type": "Feature", "properties": { "STUDY_DIRFLOW": "N", "STUDY_ADT": 3164, "STDY_TITLE_PART": "LAKE WASHINGTON BLVD S, S/O S HORTON ST", "STDY_YEAR": 2023, "SE_ANNO_CAD_DATA": "" }, "geometry": { "type": "Point", "coordinates": [ -122.28042, 47.57135 ] } },
{ "type": "Feature", "properties": { "STUDY_DIRFLOW": "E", "STUDY_ADT": 3123, "STDY_TITLE_PART": "S LUCILE ST, E/O 4TH AVE S", "STDY_YEAR": 2022, "SE_ANNO_CAD_DATA": "" }, "geometry": { "type": "Point", "coordinates": [ -122.32896, 47.5534 ] } },
{ "type": "Feature", "properties": { "STUDY_DIRFLOW": "TOTAL", "STUDY_ADT": 2146, "STDY_TITLE_PART": "15TH AVE SW, S/O SW CAMBRIDGE ST", "STDY_YEAR": 2020, "SE_ANNO_CAD_DATA": "" }, "geometry": { "type": "Point", "coordinates": [ -122.35402, 47.51827 ] } },
{ "type": "Feature", "properties": { "STUDY_DIRFLOW": "W", "STUDY_ADT": 2672, "STDY_TITLE_PART": "S MCCLELLAN ST, E/O 31ST AVE S", "STDY_YEAR": 2020, "SE_ANNO_CAD_DATA": "" }, "geometry": { "type": "Point", "coordinates": [ -122.29246, 47.57835 ] } },
{ "type": "Feature", "properties": { "STUDY_DIRFLOW": "E", "STUDY_ADT": 3821, "STDY_TITLE_PART": "ALKI AVE SW, W/O HARBOR AVE SW", "STDY_YEAR": 2023, "SE_ANNO_CAD_DATA": "" }, "geometry": { "type": "Point", "coordinates": [ -122.38679, 47.59515 ] } },
{ "type": "Feature", "properties": { "STUDY_DIRFLOW": "E", "STUDY_ADT": 600, "STDY_TITLE_PART": "NE 98TH ST, W/O RAVENNA AVE NE", "STDY_YEAR": 2021, "SE_ANNO_CAD_DATA": "" }, "geometry": { "type": "Point", "coordinates": [ -122.30232, 47.70026 ] } },
{ "type": "Feature", "properties": { "STUDY_DIRFLOW": "SE", "STUDY_ADT": 1987, "STDY_TITLE_PART": "BEACH DR SW, SE/O SW BEACH DRIVE TER", "STDY_YEAR": 2023, "SE_ANNO_CAD_DATA": "" }, "geometry": { "type": "Point", "coordinates": [ -122.40049, 47.55666 ] } },
{ "type": "Feature", "properties": { "STUDY_DIRFLOW": "TOTAL", "STUDY_ADT": 3453, "STDY_TITLE_PART": "15TH AVE NW, S/O NW 92ND ST", "STDY_YEAR": 2023, "SE_ANNO_CAD_DATA": "" }, "geometry": { "type": "Point", "coordinates": [ -122.3768, 47.69538 ] } },
{ "type": "Feature", "properties": { "STUDY_DIRFLOW": "TOTAL", "STUDY_ADT": 6642, "STDY_TITLE_PART": "S LUCILE ST, E/O 4TH AVE S", "STDY_YEAR": 2022, "SE_ANNO_CAD_DATA": "" }, "geometry": { "type": "Point", "coordinates": [ -122.32896, 47.5534 ] } },
{ "type": "Feature", "properties": { "STUDY_DIRFLOW": "TOTAL", "STUDY_ADT": 737, "STDY_TITLE_PART": "18TH AVE, N/O E PIKE ST", "STDY_YEAR": 2022, "SE_ANNO_CAD_DATA": "" }, "geometry": { "type": "Point", "coordinates": [ -122.30885, 47.61469 ] } },
{ "type": "Feature", "properties": { "STUDY_DIRFLOW": "NE", "STUDY_ADT": 1484, "STDY_TITLE_PART": "WALL ST, NE/O ALASKAN WAY", "STDY_YEAR": 2023, "SE_ANNO_CAD_DATA": "" }, "geometry": { "type": "Point", "coordinates": [ -122.35082, 47.61309 ] } },
{ "type": "Feature", "properties": { "STUDY_DIRFLOW": "S", "STUDY_ADT": 207, "STDY_TITLE_PART": "37TH AVE S, N/O S GENESEE ST", "STDY_YEAR": 2020, "SE_ANNO_CAD_DATA": "" }, "geometry": { "type": "Point", "coordinates": [ -122.28607, 47.56476 ] } },
{ "type": "Feature", "properties": { "STUDY_DIRFLOW": "N", "STUDY_ADT": 3133, "STDY_TITLE_PART": "LAKE WASHINGTON BLVD S, S/O S HORTON ST", "STDY_YEAR": 2022, "SE_ANNO_CAD_DATA": "" }, "geometry": { "type": "Point", "coordinates": [ -122.28042, 47.57135 ] } },
{ "type": "Feature", "properties": { "STUDY_DIRFLOW": "NW", "STUDY_ADT": 5922, "STDY_TITLE_PART": "BEACON ER AVE S, NW/O S JUNEAU ST", "STDY_YEAR": 2023, "SE_ANNO_CAD_DATA": "" }, "geometry": { "type": "Point", "coordinates": [ -122.30159, 47.55053 ] } },
{ "type": "Feature", "properties": { "STUDY_DIRFLOW": "N", "STUDY_ADT": 300, "STDY_TITLE_PART": "14TH AVE S, S/O S MCCLELLAN ST", "STDY_YEAR": 2020, "SE_ANNO_CAD_DATA": "" }, "geometry": { "type": "Point", "coordinates": [ -122.31466, 47.5782 ] } },
{ "type": "Feature", "properties": { "STUDY_DIRFLOW": "TOTAL", "STUDY_ADT": 0, "STDY_TITLE_PART": "WILSON AVE S, NW/O S LUCILE ST", "STDY_YEAR": 2020, "SE_ANNO_CAD_DATA": "" }, "geometry": { "type": "Point", "coordinates": [ -122.26775, 47.55283 ] } },
{ "type": "Feature", "properties": { "STUDY_DIRFLOW": "SW", "STUDY_ADT": 5298, "STDY_TITLE_PART": "STEWART ST, SW/O 5TH AVE", "STDY_YEAR": 2020, "SE_ANNO_CAD_DATA": "" }, "geometry": { "type": "Point", "coordinates": [ -122.3383, 47.61263 ] } },
{ "type": "Feature", "properties": { "STUDY_DIRFLOW": "E", "STUDY_ADT": 324, "STDY_TITLE_PART": "REPUBLICAN ST, E/O 9TH AVE N", "STDY_YEAR": 2020, "SE_ANNO_CAD_DATA": "" }, "geometry": { "type": "Point", "coordinates": [ -122.3391, 47.62321 ] } },
{ "type": "Feature", "properties": { "STUDY_DIRFLOW": "W", "STUDY_ADT": 3480, "STDY_TITLE_PART": "N 34TH ST, W/O WALLINGFORD AVE N", "STDY_YEAR": 2020, "SE_ANNO_CAD_DATA": "" }, "geometry": { "type": "Point", "coordinates": [ -122.33695, 47.64805 ] } },
{ "type": "Feature", "properties": { "STUDY_DIRFLOW": "E", "STUDY_ADT": 1586, "STDY_TITLE_PART": "NE RAVENNA EB BV, E/O 20TH AVE NE", "STDY_YEAR": 2020, "SE_ANNO_CAD_DATA": "" }, "geometry": { "type": "Point", "coordinates": [ -122.30596, 47.66923 ] } },
{ "type": "Feature", "properties": { "STUDY_DIRFLOW": "S", "STUDY_ADT": 13958, "STDY_TITLE_PART": "UNIVERSITY BR, SW/O POINT A", "STDY_YEAR": 2022, "SE_ANNO_CAD_DATA": "" }, "geometry": { "type": "Point", "coordinates": [ -122.32092, 47.65203 ] } },
{ "type": "Feature", "properties": { "STUDY_DIRFLOW": "NW", "STUDY_ADT": 4163, "STDY_TITLE_PART": "3RD AVE, SE/O UNION ST", "STDY_YEAR": 2020, "SE_ANNO_CAD_DATA": "" }, "geometry": { "type": "Point", "coordinates": [ -122.33643, 47.60826 ] } },
{ "type": "Feature", "properties": { "STUDY_DIRFLOW": "N", "STUDY_ADT": 8686, "STDY_TITLE_PART": "M L KING JR ER WAY S, N/O S ANDOVER ST", "STDY_YEAR": 2021, "SE_ANNO_CAD_DATA": "" }, "geometry": { "type": "Point", "coordinates": [ -122.29677, 47.56982 ] } },
{ "type": "Feature", "properties": { "STUDY_DIRFLOW": "NW", "STUDY_ADT": 7295, "STDY_TITLE_PART": "ROOSEVELT WAY NE, SE/O NE 130TH N ST", "STDY_YEAR": 2020, "SE_ANNO_CAD_DATA": "" }, "geometry": { "type": "Point", "coordinates": [ -122.32331, 47.723 ] } },
{ "type": "Feature", "properties": { "STUDY_DIRFLOW": "NW", "STUDY_ADT": 5879, "STDY_TITLE_PART": "DELRIDGE WAY SW, NW/O SW CAMBRIDGE ST", "STDY_YEAR": 2021, "SE_ANNO_CAD_DATA": "" }, "geometry": { "type": "Point", "coordinates": [ -122.35722, 47.51965 ] } },
{ "type": "Feature", "properties": { "STUDY_DIRFLOW": "N", "STUDY_ADT": 4300, "STDY_TITLE_PART": "CALIFORNIA AVE SW, N/O SW OREGON ST", "STDY_YEAR": 2020, "SE_ANNO_CAD_DATA": "" }, "geometry": { "type": "Point", "coordinates": [ -122.38677, 47.56382 ] } },
{ "type": "Feature", "properties": { "STUDY_DIRFLOW": "TOTAL", "STUDY_ADT": 37590, "STDY_TITLE_PART": "WEST SEATTLE BR EB, NE/O FAUNTLEROY WAY SW", "STDY_YEAR": 2023, "SE_ANNO_CAD_DATA": "" }, "geometry": { "type": "Point", "coordinates": [ -122.37338, 47.5675 ] } },
{ "type": "Feature", "properties": { "STUDY_DIRFLOW": "TOTAL", "STUDY_ADT": 9634, "STDY_TITLE_PART": "51ST AVE S, S/O S GAZELLE ST", "STDY_YEAR": 2022, "SE_ANNO_CAD_DATA": "" }, "geometry": { "type": "Point", "coordinates": [ -122.27006, 47.51099 ] } },
{ "type": "Feature", "properties": { "STUDY_DIRFLOW": "S", "STUDY_ADT": 4509, "STDY_TITLE_PART": "QUEEN ANNE AVE N, S/O CROCKETT ST", "STDY_YEAR": 2023, "SE_ANNO_CAD_DATA": "" }, "geometry": { "type": "Point", "coordinates": [ -122.35695, 47.63656 ] } },
{ "type": "Feature", "properties": { "STUDY_DIRFLOW": "NW", "STUDY_ADT": 2741, "STDY_TITLE_PART": "3RD AVE, SE/O UNION ST", "STDY_YEAR": 2021, "SE_ANNO_CAD_DATA": "" }, "geometry": { "type": "Point", "coordinates": [ -122.33643, 47.60826 ] } },
{ "type": "Feature", "properties": { "STUDY_DIRFLOW": "SE", "STUDY_ADT": 2062, "STDY_TITLE_PART": "3RD AVE, NW/O UNIVERSITY ST", "STDY_YEAR": 2023, "SE_ANNO_CAD_DATA": "" }, "geometry": { "type": "Point", "coordinates": [ -122.33643, 47.60826 ] } },
{ "type": "Feature", "properties": { "STUDY_DIRFLOW": "NE", "STUDY_ADT": 5572, "STDY_TITLE_PART": "WEST GREEN LAKE DR N, NE/O WINONA AVE N", "STDY_YEAR": 2021, "SE_ANNO_CAD_DATA": "" }, "geometry": { "type": "Point", "coordinates": [ -122.3385, 47.68545 ] } },
{ "type": "Feature", "properties": { "STUDY_DIRFLOW": "TOTAL", "STUDY_ADT": 9588, "STDY_TITLE_PART": "E JOHN ST, E/O BROADWAY E", "STDY_YEAR": 2023, "SE_ANNO_CAD_DATA": "" }, "geometry": { "type": "Point", "coordinates": [ -122.32021, 47.61991 ] } },
{ "type": "Feature", "properties": { "STUDY_DIRFLOW": "N", "STUDY_ADT": 105, "STDY_TITLE_PART": "34TH AVE SW, N/O SW MORGAN ST", "STDY_YEAR": 2020, "SE_ANNO_CAD_DATA": "" }, "geometry": { "type": "Point", "coordinates": [ -122.37507, 47.54564 ] } },
{ "type": "Feature", "properties": { "STUDY_DIRFLOW": "TOTAL", "STUDY_ADT": 3262, "STDY_TITLE_PART": "35TH AVE SW, N/O SW 104TH ST", "STDY_YEAR": 2020, "SE_ANNO_CAD_DATA": "" }, "geometry": { "type": "Point", "coordinates": [ -122.37599, 47.51095 ] } },
{ "type": "Feature", "properties": { "STUDY_DIRFLOW": "TOTAL", "STUDY_ADT": 147, "STDY_TITLE_PART": "17TH AVE E, S/O E MERCER ST", "STDY_YEAR": 2022, "SE_ANNO_CAD_DATA": "" }, "geometry": { "type": "Point", "coordinates": [ -122.31001, 47.62385 ] } },
{ "type": "Feature", "properties": { "STUDY_DIRFLOW": "TOTAL", "STUDY_ADT": 5450, "STDY_TITLE_PART": "W DRAVUS ST, E/O 14TH AVE W", "STDY_YEAR": 2021, "SE_ANNO_CAD_DATA": "" }, "geometry": { "type": "Point", "coordinates": [ -122.37423, 47.64847 ] } },
{ "type": "Feature", "properties": { "STUDY_DIRFLOW": "NW", "STUDY_ADT": 8206, "STDY_TITLE_PART": "ALASKAN WAY, SE/O BLANCHARD ST", "STDY_YEAR": 2021, "SE_ANNO_CAD_DATA": "" }, "geometry": { "type": "Point", "coordinates": [ -122.34695, 47.61038 ] } },
{ "type": "Feature", "properties": { "STUDY_DIRFLOW": "TOTAL", "STUDY_ADT": 9864, "STDY_TITLE_PART": "ALKI AVE SW, W/O HARBOR AVE SW", "STDY_YEAR": 2020, "SE_ANNO_CAD_DATA": "" }, "geometry": { "type": "Point", "coordinates": [ -122.38679, 47.59515 ] } },
{ "type": "Feature", "properties": { "STUDY_DIRFLOW": "TOTAL", "STUDY_ADT": 21847, "STDY_TITLE_PART": "NW MARKET ST, W/O 8TH AVE NW", "STDY_YEAR": 2021, "SE_ANNO_CAD_DATA": "" }, "geometry": { "type": "Point", "coordinates": [ -122.36739, 47.66866 ] } },
{ "type": "Feature", "properties": { "STUDY_DIRFLOW": "NE", "STUDY_ADT": 6615, "STDY_TITLE_PART": "UNIVERSITY ST, SW/O 4TH AVE", "STDY_YEAR": 2022, "SE_ANNO_CAD_DATA": "" }, "geometry": { "type": "Point", "coordinates": [ -122.33542, 47.608 ] } },
{ "type": "Feature", "properties": { "STUDY_DIRFLOW": "TOTAL", "STUDY_ADT": 8649, "STDY_TITLE_PART": "S FOREST ST, W/O 7TH PL S", "STDY_YEAR": 2021, "SE_ANNO_CAD_DATA": "" }, "geometry": { "type": "Point", "coordinates": [ -122.32444, 47.57772 ] } },
{ "type": "Feature", "properties": { "STUDY_DIRFLOW": "TOTAL", "STUDY_ADT": 7515, "STDY_TITLE_PART": "S GENESEE ST, E/O 38TH AVE S", "STDY_YEAR": 2023, "SE_ANNO_CAD_DATA": "" }, "geometry": { "type": "Point", "coordinates": [ -122.28442, 47.56413 ] } },
{ "type": "Feature", "properties": { "STUDY_DIRFLOW": "S", "STUDY_ADT": 2838, "STDY_TITLE_PART": "50TH AVE S, S/O S OREGON ST", "STDY_YEAR": 2023, "SE_ANNO_CAD_DATA": "" }, "geometry": { "type": "Point", "coordinates": [ -122.27072, 47.56235 ] } },
{ "type": "Feature", "properties": { "STUDY_DIRFLOW": "TOTAL", "STUDY_ADT": 15495, "STDY_TITLE_PART": "UNIVERSITY BR, SW/O POINT A", "STDY_YEAR": 2020, "SE_ANNO_CAD_DATA": "" }, "geometry": { "type": "Point", "coordinates": [ -122.32092, 47.65203 ] } },
{ "type": "Feature", "properties": { "STUDY_DIRFLOW": "S", "STUDY_ADT": 9444, "STDY_TITLE_PART": "M L KING JR WR WAY S, S/O S ORCAS ST", "STDY_YEAR": 2023, "SE_ANNO_CAD_DATA": "" }, "geometry": { "type": "Point", "coordinates": [ -122.28734, 47.5496 ] } },
{ "type": "Feature", "properties": { "STUDY_DIRFLOW": "E", "STUDY_ADT": 12092, "STDY_TITLE_PART": "DENNY WAY, W/O 2ND AVE", "STDY_YEAR": 2022, "SE_ANNO_CAD_DATA": "" }, "geometry": { "type": "Point", "coordinates": [ -122.3531, 47.61859 ] } },
{ "type": "Feature", "properties": { "STUDY_DIRFLOW": "S", "STUDY_ADT": 26, "STDY_TITLE_PART": "17TH AVE SW, N/O SW CLOVERDALE ST", "STDY_YEAR": 2021, "SE_ANNO_CAD_DATA": "" }, "geometry": { "type": "Point", "coordinates": [ -122.35642, 47.52739 ] } },
{ "type": "Feature", "properties": { "STUDY_DIRFLOW": "TOTAL", "STUDY_ADT": 11965, "STDY_TITLE_PART": "E MADISON ST, SW/O 17TH AVE", "STDY_YEAR": 2020, "SE_ANNO_CAD_DATA": "" }, "geometry": { "type": "Point", "coordinates": [ -122.31066, 47.61538 ] } },
{ "type": "Feature", "properties": { "STUDY_DIRFLOW": "N", "STUDY_ADT": 10455, "STDY_TITLE_PART": "AURORA AVE N, S/O N 68TH ST", "STDY_YEAR": 2020, "SE_ANNO_CAD_DATA": "" }, "geometry": { "type": "Point", "coordinates": [ -122.34557, 47.67823 ] } },
{ "type": "Feature", "properties": { "STUDY_DIRFLOW": "TOTAL", "STUDY_ADT": 11139, "STDY_TITLE_PART": "35TH AVE SW, S/O SW GRAHAM ST", "STDY_YEAR": 2020, "SE_ANNO_CAD_DATA": "" }, "geometry": { "type": "Point", "coordinates": [ -122.37642, 47.54559 ] } },
{ "type": "Feature", "properties": { "STUDY_DIRFLOW": "SW", "STUDY_ADT": 13376, "STDY_TITLE_PART": "HIGHLAND PARK WAY SW, E/O SW OTHELLO ST", "STDY_YEAR": 2020, "SE_ANNO_CAD_DATA": "" }, "geometry": { "type": "Point", "coordinates": [ -122.34609, 47.53925 ] } },
{ "type": "Feature", "properties": { "STUDY_DIRFLOW": "TOTAL", "STUDY_ADT": 2521, "STDY_TITLE_PART": "22ND AVE NE, N/O NE 52ND ST", "STDY_YEAR": 2023, "SE_ANNO_CAD_DATA": "" }, "geometry": { "type": "Point", "coordinates": [ -122.3044, 47.667 ] } },
{ "type": "Feature", "properties": { "STUDY_DIRFLOW": "E", "STUDY_ADT": 8337, "STDY_TITLE_PART": "DENNY WAY, W/O 2ND AVE", "STDY_YEAR": 2020, "SE_ANNO_CAD_DATA": "" }, "geometry": { "type": "Point", "coordinates": [ -122.3531, 47.61859 ] } },
{ "type": "Feature", "properties": { "STUDY_DIRFLOW": "E", "STUDY_ADT": 4376, "STDY_TITLE_PART": "S GENESEE ST, E/O 38TH AVE S", "STDY_YEAR": 2023, "SE_ANNO_CAD_DATA": "" }, "geometry": { "type": "Point", "coordinates": [ -122.28442, 47.56413 ] } },
{ "type": "Feature", "properties": { "STUDY_DIRFLOW": "N", "STUDY_ADT": 4321, "STDY_TITLE_PART": "25TH AVE NE, S/O NE 75TH ST", "STDY_YEAR": 2021, "SE_ANNO_CAD_DATA": "" }, "geometry": { "type": "Point", "coordinates": [ -122.30074, 47.68253 ] } },
{ "type": "Feature", "properties": { "STUDY_DIRFLOW": "S", "STUDY_ADT": 845, "STDY_TITLE_PART": "42ND AVE E, S/O E LYNN ST", "STDY_YEAR": 2023, "SE_ANNO_CAD_DATA": "" }, "geometry": { "type": "Point", "coordinates": [ -122.27844, 47.63803 ] } },
{ "type": "Feature", "properties": { "STUDY_DIRFLOW": "E", "STUDY_ADT": 4826, "STDY_TITLE_PART": "N 50TH ST, W/O STONE AVE N", "STDY_YEAR": 2021, "SE_ANNO_CAD_DATA": "" }, "geometry": { "type": "Point", "coordinates": [ -122.34291, 47.66502 ] } },
{ "type": "Feature", "properties": { "STUDY_DIRFLOW": "NW", "STUDY_ADT": 517, "STDY_TITLE_PART": "SEWARD PARK AVE S, SE/O OAKHURST N RD S", "STDY_YEAR": 2020, "SE_ANNO_CAD_DATA": "" }, "geometry": { "type": "Point", "coordinates": [ -122.26004, 47.55036 ] } },
{ "type": "Feature", "properties": { "STUDY_DIRFLOW": "TOTAL", "STUDY_ADT": 206, "STDY_TITLE_PART": "16TH WR AVE SW, S/O SW LANDER ST", "STDY_YEAR": 2022, "SE_ANNO_CAD_DATA": "" }, "geometry": { "type": "Point", "coordinates": [ -122.35566, 47.57619 ] } },
{ "type": "Feature", "properties": { "STUDY_DIRFLOW": "TOTAL", "STUDY_ADT": 4928, "STDY_TITLE_PART": "E ALOHA ST, E/O 21ST AVE E", "STDY_YEAR": 2023, "SE_ANNO_CAD_DATA": "" }, "geometry": { "type": "Point", "coordinates": [ -122.30418, 47.62683 ] } },
{ "type": "Feature", "properties": { "STUDY_DIRFLOW": "S", "STUDY_ADT": 1205, "STDY_TITLE_PART": "28TH AVE W, N/O W BERTONA ST", "STDY_YEAR": 2023, "SE_ANNO_CAD_DATA": "" }, "geometry": { "type": "Point", "coordinates": [ -122.39289, 47.65091 ] } },
{ "type": "Feature", "properties": { "STUDY_DIRFLOW": "N", "STUDY_ADT": 216, "STDY_TITLE_PART": "32ND AVE NE, N/O NE 143RD ST", "STDY_YEAR": 2022, "SE_ANNO_CAD_DATA": "" }, "geometry": { "type": "Point", "coordinates": [ -122.29382, 47.73286 ] } },
{ "type": "Feature", "properties": { "STUDY_DIRFLOW": "TOTAL", "STUDY_ADT": 10746, "STDY_TITLE_PART": "EAST GREEN LAKE WAY N, NE/O N 57TH ST", "STDY_YEAR": 2021, "SE_ANNO_CAD_DATA": "" }, "geometry": { "type": "Point", "coordinates": [ -122.33948, 47.67154 ] } },
{ "type": "Feature", "properties": { "STUDY_DIRFLOW": "E", "STUDY_ADT": 10214, "STDY_TITLE_PART": "DENNY WAY, W/O 2ND AVE", "STDY_YEAR": 2022, "SE_ANNO_CAD_DATA": "" }, "geometry": { "type": "Point", "coordinates": [ -122.3531, 47.61859 ] } },
{ "type": "Feature", "properties": { "STUDY_DIRFLOW": "W", "STUDY_ADT": 13554, "STDY_TITLE_PART": "N 85TH ST, W/O ASHWORTH AVE N", "STDY_YEAR": 2020, "SE_ANNO_CAD_DATA": "" }, "geometry": { "type": "Point", "coordinates": [ -122.33968, 47.69053 ] } },
{ "type": "Feature", "properties": { "STUDY_DIRFLOW": "E", "STUDY_ADT": 1573, "STDY_TITLE_PART": "NE 145TH ST, E/O LAKE CITY WAY NE", "STDY_YEAR": 2021, "SE_ANNO_CAD_DATA": "" }, "geometry": { "type": "Point", "coordinates": [ -122.29177, 47.73376 ] } },
{ "type": "Feature", "properties": { "STUDY_DIRFLOW": "NE", "STUDY_ADT": 1616, "STDY_TITLE_PART": "UNIVERSITY ST, SW/O WESTERN AVE", "STDY_YEAR": 2021, "SE_ANNO_CAD_DATA": "" }, "geometry": { "type": "Point", "coordinates": [ -122.3397, 47.6062 ] } },
{ "type": "Feature", "properties": { "STUDY_DIRFLOW": "TOTAL", "STUDY_ADT": 27102, "STDY_TITLE_PART": "DENNY WAY, W/O 2ND AVE", "STDY_YEAR": 2022, "SE_ANNO_CAD_DATA": "" }, "geometry": { "type": "Point", "coordinates": [ -122.3531, 47.61859 ] } },
{ "type": "Feature", "properties": { "STUDY_DIRFLOW": "TOTAL", "STUDY_ADT": 4942, "STDY_TITLE_PART": "6TH AVE S, N/O S MICHIGAN ST", "STDY_YEAR": 2023, "SE_ANNO_CAD_DATA": "" }, "geometry": { "type": "Point", "coordinates": [ -122.32615, 47.54715 ] } },
{ "type": "Feature", "properties": { "STUDY_DIRFLOW": "S", "STUDY_ADT": 2209, "STDY_TITLE_PART": "2ND AVE W, N/O W ROY ST", "STDY_YEAR": 2021, "SE_ANNO_CAD_DATA": "" }, "geometry": { "type": "Point", "coordinates": [ -122.35931, 47.62622 ] } },
{ "type": "Feature", "properties": { "STUDY_DIRFLOW": "TOTAL", "STUDY_ADT": 11346, "STDY_TITLE_PART": "S MASSACHUSETTS ST, E/O 22ND AVE S", "STDY_YEAR": 2023, "SE_ANNO_CAD_DATA": "" }, "geometry": { "type": "Point", "coordinates": [ -122.30323, 47.58839 ] } },
{ "type": "Feature", "properties": { "STUDY_DIRFLOW": "TOTAL", "STUDY_ADT": 3904, "STDY_TITLE_PART": "S HOLDEN ST, E/O 2ND AVE S", "STDY_YEAR": 2023, "SE_ANNO_CAD_DATA": "" }, "geometry": { "type": "Point", "coordinates": [ -122.32976, 47.53414 ] } },
{ "type": "Feature", "properties": { "STUDY_DIRFLOW": "TOTAL", "STUDY_ADT": 90, "STDY_TITLE_PART": "27TH AVE NE, N/O NE 80TH ST", "STDY_YEAR": 2023, "SE_ANNO_CAD_DATA": "" }, "geometry": { "type": "Point", "coordinates": [ -122.29819, 47.68757 ] } },
{ "type": "Feature", "properties": { "STUDY_DIRFLOW": "S", "STUDY_ADT": 826, "STDY_TITLE_PART": "UNIVERSITY WAY NE, S/O NE RAVENNA EB BV", "STDY_YEAR": 2020, "SE_ANNO_CAD_DATA": "" }, "geometry": { "type": "Point", "coordinates": [ -122.31303, 47.67021 ] } },
{ "type": "Feature", "properties": { "STUDY_DIRFLOW": "S", "STUDY_ADT": 8431, "STDY_TITLE_PART": "FREMONT BR, N/O POINT A", "STDY_YEAR": 2021, "SE_ANNO_CAD_DATA": "" }, "geometry": { "type": "Point", "coordinates": [ -122.34975, 47.64761 ] } },